[{"ident":"AA","name":"Kenie","type":"NDB","coordinate":{"latitude":47.0093,"longitude":-96.8152},"frequencyKhz":365},{"ident":"AA","name":"Cedar","type":"NDB","coordinate":{"latitude":33.533,"longitude":-82.6144},"frequencyKhz":341},{"ident":"AAA","name":"Abraham","type":"NDB","coordinate":{"latitude":40.1601,"longitude":-89.3378},"frequencyKhz":329},{"ident":"AAF","name":"Apalachicola","type":"NDB","coordinate":{"latitude":29.7233,"longitude":-85.0281},"frequencyKhz":349},{"ident":"AAU","name":"Ashland","type":"NDB","coordinate":{"latitude":40.9633,"longitude":-82.2534},"frequencyKhz":329},{"ident":"AB","name":"Putny","type":"NDB","coordinate":{"latitude":31.4561,"longitude":-84.2762},"frequencyKhz":227},{"ident":"AB","name":"Tomhi","type":"NDB","coordinate":{"latitude":32.2989,"longitude":-99.6742},"frequencyKhz":353},{"ident":"AB","name":"Reney","type":"NDB","coordinate":{"latitude":45.386,"longitude":-98.3284},"frequencyKhz":203},{"ident":"AB","name":"Leehi","type":"NDB","coordinate":{"latitude":40.5858,"longitude":-75.5496},"frequencyKhz":400},{"ident":"ABB","name":"Nabb","type":"VORTAC","coordinate":{"latitude":38.5888,"longitude":-85.636},"frequencyKhz":112400},{"ident":"ABG","name":"Ambassador","type":"NDB","coordinate":{"latitude":32.5854,"longitude":-95.113},"frequencyKhz":404},{"ident":"ABI","name":"Abilene","type":"VORTAC","coordinate":{"latitude":32.4813,"longitude":-99.8635},"frequencyKhz":113700},{"ident":"ABQ","name":"Albuquerque","type":"VORTAC","coordinate":{"latitude":35.0438,"longitude":-106.816},"frequencyKhz":113200},{"ident":"ABR","name":"Aberdeen","type":"VOR-DME","coordinate":{"latitude":45.4174,"longitude":-98.3687},"frequencyKhz":113000},{"ident":"AC","name":"Coffi","type":"NDB","coordinate":{"latitude":31.694,"longitude":-97.2038},"frequencyKhz":358},{"ident":"AC","name":"Waivs","type":"NDB","coordinate":{"latitude":41.3111,"longitude":-69.9867},"frequencyKhz":248},{"ident":"ACE","name":"Kachemak","type":"NDB","coordinate":{"latitude":59.6413,"longitude":-151.5},"frequencyKhz":277},{"ident":"ACH","name":"Anton Chico","type":"VORTAC","coordinate":{"latitude":35.1117,"longitude":-105.04},"frequencyKhz":117800},{"ident":"ACK","name":"Nantucket","type":"VOR-DME","coordinate":{"latitude":41.2818,"longitude":-70.0267},"frequencyKhz":116200},{"ident":"ACO","name":"Akron","type":"VOR-DME","coordinate":{"latitude":41.1079,"longitude":-81.2015},"frequencyKhz":114400},{"ident":"ACQ","name":"Waseca","type":"NDB","coordinate":{"latitude":44.0702,"longitude":-93.5524},"frequencyKhz":371},{"ident":"ACT","name":"Waco","type":"VORTAC","coordinate":{"latitude":31.6623,"longitude":-97.269},"frequencyKhz":115300},{"ident":"ACV","name":"Arcata","type":"VOR-DME","coordinate":{"latitude":40.9814,"longitude":-124.108},"frequencyKhz":110200},{"ident":"ACY","name":"Atlantic City","type":"VORTAC","coordinate":{"latitude":39.4559,"longitude":-74.5763},"frequencyKhz":108600},{"ident":"ACZ","name":"Pendy","type":"NDB","coordinate":{"latitude":34.7163,"longitude":-78.0036},"frequencyKhz":379},{"ident":"AD","name":"Brons","type":"NDB","coordinate":{"latitude":33.0443,"longitude":-96.8705},"frequencyKhz":407},{"ident":"ADF","name":"Arkadelphia","type":"NDB","coordinate":{"latitude":34.0554,"longitude":-93.1049},"frequencyKhz":275},{"ident":"ADG","name":"Adrian","type":"NDB","coordinate":{"latitude":41.87,"longitude":-84.0775},"frequencyKhz":278},{"ident":"ADH","name":"Ada","type":"VOR-DME","coordinate":{"latitude":34.8026,"longitude":-96.6701},"frequencyKhz":117800},{"ident":"ADK","name":"Mount Moffett","type":"NDB-DME","coordinate":{"latitude":51.8719,"longitude":-176.676},"frequencyKhz":530},{"ident":"ADM","name":"Ardmore","type":"VORTAC","coordinate":{"latitude":34.2116,"longitude":-97.1683},"frequencyKhz":116700},{"ident":"ADT","name":"Atwood","type":"NDB","coordinate":{"latitude":39.8386,"longitude":-101.045},"frequencyKhz":365},{"ident":"ADU","name":"Audubon","type":"NDB","coordinate":{"latitude":41.6903,"longitude":-94.91},"frequencyKhz":266},{"ident":"ADW","name":"Andrews","type":"VORTAC","coordinate":{"latitude":38.8072,"longitude":-76.8662},"frequencyKhz":113100},{"ident":"AE","name":"Dudle","type":"NDB","coordinate":{"latitude":35.2173,"longitude":-106.713},"frequencyKhz":351},{"ident":"AEA","name":"Jones","type":"NDB","coordinate":{"latitude":36.6145,"longitude":-78.0532},"frequencyKhz":373},{"ident":"AEE","name":"Antlers","type":"NDB","coordinate":{"latitude":34.1918,"longitude":-95.6519},"frequencyKhz":391},{"ident":"AEL","name":"Albert Lea","type":"VOR-DME","coordinate":{"latitude":43.6818,"longitude":-93.3708},"frequencyKhz":109800},{"ident":"AES","name":"Nabesna","type":"NDB","coordinate":{"latitude":62.9658,"longitude":-141.888},"frequencyKhz":390},{"ident":"AEX","name":"Alexandria","type":"VORTAC","coordinate":{"latitude":31.2567,"longitude":-92.501},"frequencyKhz":116100},{"ident":"AEY","name":"Waverly","type":"NDB","coordinate":{"latitude":36.1162,"longitude":-87.7413},"frequencyKhz":329},{"ident":"AFD","name":"Watford City","type":"NDB","coordinate":{"latitude":47.8151,"longitude":-103.258},"frequencyKhz":400},{"ident":"AFE","name":"Kake","type":"NDB-DME","coordinate":{"latitude":56.9639,"longitude":-133.912},"frequencyKhz":223},{"ident":"AFK","name":"Nebraska City","type":"NDB","coordinate":{"latitude":40.6056,"longitude":-95.8608},"frequencyKhz":347},{"ident":"AFP","name":"Anson Co","type":"NDB","coordinate":{"latitude":35.024,"longitude":-80.083},"frequencyKhz":283},{"ident":"AG","name":"Bushe","type":"NDB","coordinate":{"latitude":33.2869,"longitude":-81.9469},"frequencyKhz":233},{"ident":"AGC","name":"Allegheny","type":"VOR-DME","coordinate":{"latitude":40.2787,"longitude":-80.0409},"frequencyKhz":110000},{"ident":"AGJ","name":"Gooch Springs","type":"VORTAC","coordinate":{"latitude":31.185,"longitude":-98.141},"frequencyKhz":112500},{"ident":"AGZ","name":"Wagner","type":"NDB","coordinate":{"latitude":43.0625,"longitude":-98.2923},"frequencyKhz":392},{"ident":"AHC","name":"Amedee","type":"VOR-DME","coordinate":{"latitude":40.2679,"longitude":-120.152},"frequencyKhz":109000},{"ident":"AHH","name":"Ameron","type":"NDB","coordinate":{"latitude":45.2814,"longitude":-92.3713},"frequencyKhz":278},{"ident":"AHN","name":"Athens","type":"VORTAC","coordinate":{"latitude":33.9476,"longitude":-83.3248},"frequencyKhz":109600},{"ident":"AHQ","name":"Wahoo","type":"NDB","coordinate":{"latitude":41.2392,"longitude":-96.5984},"frequencyKhz":400},{"ident":"AHT","name":"Amchitka","type":"NDB-DME","coordinate":{"latitude":51.3797,"longitude":-179.258},"frequencyKhz":379},{"ident":"AHX","name":"Athens","type":"NDB","coordinate":{"latitude":32.1593,"longitude":-95.8302},"frequencyKhz":269},{"ident":"AI","name":"Video","type":"NDB","coordinate":{"latitude":40.0695,"longitude":-85.5107},"frequencyKhz":371},{"ident":"AI","name":"Addmo","type":"NDB","coordinate":{"latitude":34.2324,"longitude":-96.9331},"frequencyKhz":400},{"ident":"AIA","name":"Alliance","type":"VOR-DME","coordinate":{"latitude":42.0556,"longitude":-102.804},"frequencyKhz":111800},{"ident":"AIG","name":"Antigo","type":"NDB","coordinate":{"latitude":45.1586,"longitude":-89.1138},"frequencyKhz":347},{"ident":"AIK","name":"Aiken","type":"NDB","coordinate":{"latitude":33.6518,"longitude":-81.6771},"frequencyKhz":347},{"ident":"AIO","name":"Atlantic","type":"NDB","coordinate":{"latitude":41.404,"longitude":-95.0463},"frequencyKhz":365},{"ident":"AIR","name":"Bellaire","type":"VOR-DME","coordinate":{"latitude":40.017,"longitude":-80.8173},"frequencyKhz":117100},{"ident":"AIT","name":"Aitkin","type":"NDB","coordinate":{"latitude":46.5475,"longitude":-93.6752},"frequencyKhz":397},{"ident":"AIV","name":"Aliceville","type":"NDB","coordinate":{"latitude":33.114,"longitude":-88.1856},"frequencyKhz":254},{"ident":"AIX","name":"Nanwak","type":"NDB-DME","coordinate":{"latitude":60.385,"longitude":-166.215},"frequencyKhz":323},{"ident":"AIZ","name":"Kaiser","type":"NDB","coordinate":{"latitude":38.0966,"longitude":-92.5531},"frequencyKhz":377},{"ident":"AJG","name":"Mt Carmel","type":"NDB","coordinate":{"latitude":38.612,"longitude":-87.7261},"frequencyKhz":524},{"ident":"AJR","name":"Habersham","type":"NDB","coordinate":{"latitude":34.5015,"longitude":-83.5499},"frequencyKhz":347},{"ident":"AJW","name":"Andri","type":"NDB","coordinate":{"latitude":45.7917,"longitude":-95.3055},"frequencyKhz":281},{"ident":"AJX","name":"Ash Flat","type":"NDB","coordinate":{"latitude":36.1806,"longitude":-91.6066},"frequencyKhz":344},{"ident":"AK","name":"Saldo","type":"NDB","coordinate":{"latitude":58.7372,"longitude":-156.778},"frequencyKhz":355},{"ident":"AK","name":"Akron","type":"NDB","coordinate":{"latitude":41.0698,"longitude":-81.3875},"frequencyKhz":362},{"ident":"AKL","name":"Haskell","type":"NDB","coordinate":{"latitude":33.1911,"longitude":-99.72},"frequencyKhz":407},{"ident":"AKN","name":"King Salmon","type":"VORTAC","coordinate":{"latitude":58.7247,"longitude":-156.752},"frequencyKhz":112800},{"ident":"AKO","name":"Akron","type":"VOR-DME","coordinate":{"latitude":40.1556,"longitude":-103.18},"frequencyKhz":114400},{"ident":"AKP","name":"Anaktuvuk Pass","type":"NDB","coordinate":{"latitude":68.1366,"longitude":-151.744},"frequencyKhz":348},{"ident":"AKQ","name":"Wakefield","type":"NDB","coordinate":{"latitude":36.9832,"longitude":-77.0011},"frequencyKhz":274},{"ident":"AKW","name":"Klawock","type":"NDB-DME","coordinate":{"latitude":55.5686,"longitude":-133.079},"frequencyKhz":229},{"ident":"AL","name":"Price","type":"NDB","coordinate":{"latitude":42.6222,"longitude":-92.5094},"frequencyKhz":382},{"ident":"AL","name":"Trina","type":"NDB","coordinate":{"latitude":46.1755,"longitude":-118.196},"frequencyKhz":353},{"ident":"AL","name":"Hawky","type":"NDB","coordinate":{"latitude":42.8173,"longitude":-73.8106},"frequencyKhz":219},{"ident":"AL","name":"Alpos","type":"NDB","coordinate":{"latitude":38.8551,"longitude":-89.9382},"frequencyKhz":218},{"ident":"ALB","name":"Albany","type":"VORTAC","coordinate":{"latitude":42.7472,"longitude":-73.8032},"frequencyKhz":115300},{"ident":"ALD","name":"Allendale","type":"VOR","coordinate":{"latitude":33.0125,"longitude":-81.2922},"frequencyKhz":116700},{"ident":"ALI","name":"Alice","type":"VOR","coordinate":{"latitude":27.7398,"longitude":-98.0213},"frequencyKhz":114500},{"ident":"ALJ","name":"Orca Bay","type":"NDB","coordinate":{"latitude":60.4798,"longitude":-146.587},"frequencyKhz":233},{"ident":"ALO","name":"Waterloo","type":"VORTAC","coordinate":{"latitude":42.5565,"longitude":-92.3989},"frequencyKhz":112200},{"ident":"ALP","name":"Alpine","type":"NDB","coordinate":{"latitude":42.2387,"longitude":-76.764},"frequencyKhz":245},{"ident":"ALS","name":"Alamosa","type":"VORTAC","coordinate":{"latitude":37.3492,"longitude":-105.816},"frequencyKhz":113900},{"ident":"ALU","name":"Alliance","type":"NDB","coordinate":{"latitude":42.0432,"longitude":-102.799},"frequencyKhz":380},{"ident":"ALW","name":"Walla Walla","type":"VOR-DME","coordinate":{"latitude":46.087,"longitude":-118.293},"frequencyKhz":116400},{"ident":"AM","name":"Picny","type":"NDB","coordinate":{"latitude":27.8612,"longitude":-82.5458},"frequencyKhz":388},{"ident":"AM","name":"Pande","type":"NDB","coordinate":{"latitude":35.1465,"longitude":-101.805},"frequencyKhz":251},{"ident":"AMF","name":"Ambler","type":"NDB-DME","coordinate":{"latitude":67.1068,"longitude":-157.858},"frequencyKhz":403},{"ident":"AMG","name":"Alma","type":"VORTAC","coordinate":{"latitude":31.5365,"longitude":-82.5081},"frequencyKhz":115100},{"ident":"AML","name":"Armel","type":"VORTAC","coordinate":{"latitude":38.9346,"longitude":-77.4667},"frequencyKhz":113500},{"ident":"AMN","name":"Alma","type":"NDB","coordinate":{"latitude":43.3234,"longitude":-84.7852},"frequencyKhz":329},{"ident":"AMT","name":"West Union","type":"NDB","coordinate":{"latitude":38.8559,"longitude":-83.5638},"frequencyKhz":359},{"ident":"AN","name":"Alamo","type":"NDB","coordinate":{"latitude":29.6049,"longitude":-98.5714},"frequencyKhz":368},{"ident":"AN","name":"Bogga","type":"NDB","coordinate":{"latitude":33.5344,"longitude":-85.9308},"frequencyKhz":211},{"ident":"AN","name":"Boing","type":"NDB","coordinate":{"latitude":32.7399,"longitude":-117.216},"frequencyKhz":245},{"ident":"ANC","name":"Anchorage","type":"VOR-DME","coordinate":{"latitude":61.1508,"longitude":-150.207},"frequencyKhz":114300},{"ident":"AND","name":"Anderson","type":"NDB","coordinate":{"latitude":34.4981,"longitude":-82.7085},"frequencyKhz":230},{"ident":"ANI","name":"Aniak","type":"NDB","coordinate":{"latitude":61.5902,"longitude":-159.598},"frequencyKhz":359},{"ident":"ANN","name":"Annette Island","type":"VOR-DME","coordinate":{"latitude":55.0604,"longitude":-131.578},"frequencyKhz":117100},{"ident":"ANQ","name":"Angola","type":"NDB","coordinate":{"latitude":41.6398,"longitude":-85.0869},"frequencyKhz":347},{"ident":"ANR","name":"Andrews","type":"NDB","coordinate":{"latitude":32.3486,"longitude":-102.536},"frequencyKhz":245},{"ident":"ANV","name":"Anvik","type":"NDB-DME","coordinate":{"latitude":62.6414,"longitude":-160.19},"frequencyKhz":365},{"ident":"ANW","name":"Ainsworth","type":"VOR-DME","coordinate":{"latitude":42.5691,"longitude":-99.9897},"frequencyKhz":112700},{"ident":"ANX","name":"Napoleon","type":"VORTAC","coordinate":{"latitude":39.0954,"longitude":-94.1288},"frequencyKhz":114000},{"ident":"ANY","name":"Anthony","type":"VORTAC","coordinate":{"latitude":37.1589,"longitude":-98.1707},"frequencyKhz":112900},{"ident":"AOC","name":"Arco","type":"NDB","coordinate":{"latitude":43.599,"longitude":-113.342},"frequencyKhz":200},{"ident":"AOH","name":"Allen Co","type":"VOR","coordinate":{"latitude":40.7071,"longitude":-83.9682},"frequencyKhz":108400},{"ident":"AOO","name":"Altoona","type":"VOR","coordinate":{"latitude":40.3254,"longitude":-78.3037},"frequencyKhz":108800},{"ident":"AOP","name":"Antelope","type":"NDB","coordinate":{"latitude":41.6042,"longitude":-109.002},"frequencyKhz":290},{"ident":"AOV","name":"Bilmart","type":"NDB","coordinate":{"latitude":36.9698,"longitude":-92.6774},"frequencyKhz":341},{"ident":"AP","name":"Casse","type":"NDB","coordinate":{"latitude":39.4519,"longitude":-104.846},"frequencyKhz":260},{"ident":"AP","name":"Felps","type":"NDB","coordinate":{"latitude":44.9607,"longitude":-83.56},"frequencyKhz":206},{"ident":"AP","name":"Vagey","type":"NDB","coordinate":{"latitude":44.8241,"longitude":-93.3058},"frequencyKhz":338},{"ident":"APE","name":"Appleton","type":"VORTAC","coordinate":{"latitude":40.1511,"longitude":-82.5883},"frequencyKhz":116700},{"ident":"APF","name":"Naples","type":"NDB","coordinate":{"latitude":26.1557,"longitude":-81.7744},"frequencyKhz":201},{"ident":"APG","name":"Aberdeen","type":"NDB","coordinate":{"latitude":39.5351,"longitude":-76.1063},"frequencyKhz":349},{"ident":"APH","name":"A P Hill","type":"NDB","coordinate":{"latitude":38.0878,"longitude":-77.3249},"frequencyKhz":396},{"ident":"APN","name":"Alpena","type":"VORTAC","coordinate":{"latitude":45.0828,"longitude":-83.557},"frequencyKhz":108800},{"ident":"APT","name":"Jasper","type":"NDB","coordinate":{"latitude":35.0596,"longitude":-85.5839},"frequencyKhz":382},{"ident":"AQ","name":"Kooky","type":"NDB","coordinate":{"latitude":44.2159,"longitude":-88.399},"frequencyKhz":407},{"ident":"AQE","name":"Alwood","type":"NDB","coordinate":{"latitude":35.7069,"longitude":-77.3719},"frequencyKhz":230},{"ident":"AQP","name":"Appleton","type":"NDB","coordinate":{"latitude":45.2285,"longitude":-96.0095},"frequencyKhz":356},{"ident":"AR","name":"Acadi","type":"NDB","coordinate":{"latitude":29.9563,"longitude":-91.8633},"frequencyKhz":269},{"ident":"AR","name":"Armin","type":"NDB","coordinate":{"latitude":41.8104,"longitude":-71.3532},"frequencyKhz":356},{"ident":"ARD","name":"Yardley","type":"VOR-DME","coordinate":{"latitude":40.2533,"longitude":-74.9076},"frequencyKhz":108200},{"ident":"ARF","name":"Saratoga","type":"NDB","coordinate":{"latitude":34.2529,"longitude":-86.2236},"frequencyKhz":296},{"ident":"ARG","name":"Walnut Ridge","type":"VORTAC","coordinate":{"latitude":36.11,"longitude":-90.9537},"frequencyKhz":114500},{"ident":"ARH","name":"Libby","type":"TACAN","coordinate":{"latitude":31.5856,"longitude":-110.339},"frequencyKhz":111600},{"ident":"ARM","name":"Wharton","type":"NDB","coordinate":{"latitude":29.2546,"longitude":-96.152},"frequencyKhz":245},{"ident":"ART","name":"Watertown","type":"VORTAC","coordinate":{"latitude":43.952,"longitude":-76.0646},"frequencyKhz":109800},{"ident":"ARV","name":"Arbor Vitae","type":"NDB","coordinate":{"latitude":45.9268,"longitude":-89.7285},"frequencyKhz":221},{"ident":"AS","name":"Chern","type":"NDB","coordinate":{"latitude":42.8234,"longitude":-71.6021},"frequencyKhz":359},{"ident":"ASJ","name":"Ahoskie","type":"NDB","coordinate":{"latitude":36.2993,"longitude":-77.1755},"frequencyKhz":415},{"ident":"ASP","name":"Au Sable","type":"VOR-DME","coordinate":{"latitude":44.4491,"longitude":-83.3943},"frequencyKhz":116100},{"ident":"AST","name":"Astoria","type":"VOR-DME","coordinate":{"latitude":46.1617,"longitude":-123.88},"frequencyKhz":114000},{"ident":"ASX","name":"Ashland","type":"VOR-DME","coordinate":{"latitude":46.5494,"longitude":-90.9172},"frequencyKhz":110200},{"ident":"AT","name":"Catta","type":"NDB","coordinate":{"latitude":33.6468,"longitude":-84.5421},"frequencyKhz":375},{"ident":"AT","name":"Gamie","type":"NDB","coordinate":{"latitude":44.1624,"longitude":-88.5849},"frequencyKhz":230},{"ident":"AT","name":"Bruny","type":"NDB","coordinate":{"latitude":39.847,"longitude":-84.3348},"frequencyKhz":315},{"ident":"AT","name":"Lican","type":"NDB","coordinate":{"latitude":44.8033,"longitude":-97.1501},"frequencyKhz":215},{"ident":"ATA","name":"Atlanta","type":"NDB","coordinate":{"latitude":33.1037,"longitude":-94.1905},"frequencyKhz":347},{"ident":"ATK","name":"Atqasuk","type":"NDB","coordinate":{"latitude":70.4691,"longitude":-157.427},"frequencyKhz":350},{"ident":"ATL","name":"Atlanta","type":"VORTAC","coordinate":{"latitude":33.6291,"longitude":-84.4351},"frequencyKhz":116900},{"ident":"ATR","name":"Waterloo","type":"VOR-DME","coordinate":{"latitude":38.8098,"longitude":-75.2113},"frequencyKhz":112600},{"ident":"ATS","name":"Artesia","type":"NDB","coordinate":{"latitude":32.8526,"longitude":-104.462},"frequencyKhz":414},{"ident":"ATU","name":"Attu","type":"NDB","coordinate":{"latitude":52.8289,"longitude":173.18},"frequencyKhz":375},{"ident":"ATY","name":"Watertown","type":"VORTAC","coordinate":{"latitude":44.9797,"longitude":-97.1417},"frequencyKhz":116600},{"ident":"AU","name":"Austi","type":"NDB","coordinate":{"latitude":30.2357,"longitude":-97.6257},"frequencyKhz":353},{"ident":"AU","name":"Dunns","type":"NDB","coordinate":{"latitude":44.4108,"longitude":-69.8606},"frequencyKhz":366},{"ident":"AU","name":"Opole","type":"NDB","coordinate":{"latitude":32.5093,"longitude":-85.4372},"frequencyKhz":423},{"ident":"AUG","name":"Augusta","type":"VOR-DME","coordinate":{"latitude":44.32,"longitude":-69.7966},"frequencyKhz":111400},{"ident":"AUH","name":"Aurora","type":"NDB","coordinate":{"latitude":40.8925,"longitude":-97.9972},"frequencyKhz":278},{"ident":"AUW","name":"Wausau","type":"VORTAC","coordinate":{"latitude":44.8468,"longitude":-89.5866},"frequencyKhz":111600},{"ident":"AV","name":"Barty","type":"NDB","coordinate":{"latitude":41.2769,"longitude":-75.7757},"frequencyKhz":257},{"ident":"AVE","name":"Avenal","type":"VORTAC","coordinate":{"latitude":35.647,"longitude":-119.979},"frequencyKhz":117100},{"ident":"AVK","name":"Alva","type":"NDB","coordinate":{"latitude":36.7792,"longitude":-98.6712},"frequencyKhz":203},{"ident":"AVN","name":"Avon","type":"NDB","coordinate":{"latitude":43.0099,"longitude":-77.7693},"frequencyKhz":344},{"ident":"AVQ","name":"Marana","type":"NDB","coordinate":{"latitude":32.4118,"longitude":-111.216},"frequencyKhz":245},{"ident":"AVZ","name":"Travis","type":"NDB","coordinate":{"latitude":32.7601,"longitude":-96.2491},"frequencyKhz":260},{"ident":"AW","name":"Waton","type":"NDB","coordinate":{"latitude":48.0761,"longitude":-122.154},"frequencyKhz":382},{"ident":"AWG","name":"Washington","type":"NDB","coordinate":{"latitude":41.2798,"longitude":-91.6726},"frequencyKhz":219},{"ident":"AWM","name":"West Memphis","type":"NDB","coordinate":{"latitude":35.1394,"longitude":-90.2326},"frequencyKhz":362},{"ident":"AWS","name":"Lawson","type":"NDB","coordinate":{"latitude":32.2932,"longitude":-85.0233},"frequencyKhz":335},{"ident":"AXA","name":"Algona","type":"NDB","coordinate":{"latitude":43.0814,"longitude":-94.2725},"frequencyKhz":403},{"ident":"AXC","name":"Decatur","type":"VORTAC","coordinate":{"latitude":39.7375,"longitude":-88.8564},"frequencyKhz":117200},{"ident":"AXN","name":"Alexandria","type":"VOR-DME","coordinate":{"latitude":45.9584,"longitude":-95.2326},"frequencyKhz":112800},{"ident":"AY","name":"Wiket","type":"NDB","coordinate":{"latitude":31.3256,"longitude":-82.3981},"frequencyKhz":219},{"ident":"AYS","name":"Waycross","type":"VORTAC","coordinate":{"latitude":31.2694,"longitude":-82.5564},"frequencyKhz":110200},{"ident":"AZ","name":"Austn","type":"NDB","coordinate":{"latitude":42.1311,"longitude":-85.5298},"frequencyKhz":371},{"ident":"AZC","name":"Colorado City","type":"NDB","coordinate":{"latitude":36.9599,"longitude":-113.009},"frequencyKhz":403},{"ident":"AZE","name":"Hazlehurst","type":"NDB","coordinate":{"latitude":31.8802,"longitude":-82.6474},"frequencyKhz":414},{"ident":"AZN","name":"Amazon","type":"NDB","coordinate":{"latitude":39.884,"longitude":-94.9082},"frequencyKhz":233},{"ident":"AZO","name":"Kalamazoo","type":"VOR-DME","coordinate":{"latitude":42.237,"longitude":-85.5532},"frequencyKhz":109000},{"ident":"AZQ","name":"Hazard","type":"VOR-DME","coordinate":{"latitude":37.3913,"longitude":-83.263},"frequencyKhz":111200},{"ident":"AZS","name":"Azalea Park","type":"NDB","coordinate":{"latitude":38.0102,"longitude":-78.5181},"frequencyKhz":336},{"ident":"AZW","name":"Mt  iAy","type":"NDB","coordinate":{"latitude":36.381,"longitude":-80.5402},"frequencyKhz":223},{"ident":"BA","name":"Clifs","type":"NDB","coordinate":{"latitude":39.3222,"longitude":-85.8185},"frequencyKhz":410},{"ident":"BA","name":"Wesie","type":"NDB","coordinate":{"latitude":42.2483,"longitude":-72.6963},"frequencyKhz":230},{"ident":"BA","name":"Babco","type":"NDB","coordinate":{"latitude":44.8567,"longitude":-92.9845},"frequencyKhz":385},{"ident":"BAB","name":"Beale","type":"TACAN","coordinate":{"latitude":39.1348,"longitude":-121.441},"frequencyKhz":108600},{"ident":"BAD","name":"Barksdale","type":"TACAN","coordinate":{"latitude":32.5033,"longitude":-93.6678},"frequencyKhz":115800},{"ident":"BAE","name":"Badger","type":"VORTAC","coordinate":{"latitude":43.1169,"longitude":-88.2843},"frequencyKhz":116400},{"ident":"BAF","name":"Barnes","type":"VORTAC","coordinate":{"latitude":42.162,"longitude":-72.7162},"frequencyKhz":113000},{"ident":"BAJ","name":"Batten","type":"NDB","coordinate":{"latitude":40.5322,"longitude":-103.23},"frequencyKhz":392},{"ident":"BAL","name":"Baltimore","type":"VORTAC","coordinate":{"latitude":39.1711,"longitude":-76.6613},"frequencyKhz":115100},{"ident":"BAM","name":"Battle Mountain","type":"VORTAC","coordinate":{"latitude":40.5692,"longitude":-116.922},"frequencyKhz":112200},{"ident":"BAR","name":"Hemlock","type":"NDB","coordinate":{"latitude":36.1535,"longitude":-81.8798},"frequencyKhz":320},{"ident":"BAV","name":"Hardeman","type":"NDB","coordinate":{"latitude":35.2143,"longitude":-89.0421},"frequencyKhz":404},{"ident":"BAX","name":"Bad Axe","type":"VOR-DME","coordinate":{"latitude":43.7828,"longitude":-82.9838},"frequencyKhz":108200},{"ident":"BBB","name":"Benson","type":"NDB","coordinate":{"latitude":45.3272,"longitude":-95.6503},"frequencyKhz":239},{"ident":"BBD","name":"Brady","type":"NDB","coordinate":{"latitude":31.178,"longitude":-99.3226},"frequencyKhz":380},{"ident":"BBN","name":"Babylon","type":"NDB","coordinate":{"latitude":40.6725,"longitude":-73.3844},"frequencyKhz":275},{"ident":"BBW","name":"Broken Bow","type":"NDB","coordinate":{"latitude":41.4341,"longitude":-99.6359},"frequencyKhz":265},{"ident":"BCC","name":"Bear Creek","type":"NDB","coordinate":{"latitude":65.1739,"longitude":-152.206},"frequencyKhz":212},{"ident":"BCE","name":"Bryce Canyon","type":"VORTAC","coordinate":{"latitude":37.6892,"longitude":-112.304},"frequencyKhz":112800},{"ident":"BCK","name":"Black River Falls","type":"NDB","coordinate":{"latitude":44.2547,"longitude":-90.849},"frequencyKhz":362},{"ident":"BCZ","name":"Choctaw","type":"NDB","coordinate":{"latitude":32.1143,"longitude":-88.1214},"frequencyKhz":228},{"ident":"BD","name":"Chupp","type":"NDB","coordinate":{"latitude":41.8774,"longitude":-72.7662},"frequencyKhz":388},{"ident":"BDB","name":"Accomack","type":"NDB","coordinate":{"latitude":37.5704,"longitude":-75.7983},"frequencyKhz":336},{"ident":"BDD","name":"Bellgrade","type":"NDB","coordinate":{"latitude":37.1455,"longitude":-88.6705},"frequencyKhz":254},{"ident":"BDE","name":"Baudette","type":"VOR-DME","coordinate":{"latitude":48.7228,"longitude":-94.6073},"frequencyKhz":111600},{"ident":"BDF","name":"Bradford","type":"VORTAC","coordinate":{"latitude":41.1597,"longitude":-89.5879},"frequencyKhz":114700},{"ident":"BDL","name":"Bradley","type":"VORTAC","coordinate":{"latitude":41.941,"longitude":-72.6886},"frequencyKhz":109000},{"ident":"BDQ","name":"Bridge","type":"NDB","coordinate":{"latitude":35.1393,"longitude":-92.7124},"frequencyKhz":208},{"ident":"BDR","name":"Bridgeport","type":"VOR-DME","coordinate":{"latitude":41.1607,"longitude":-73.1245},"frequencyKhz":108800},{"ident":"BE","name":"Bedds","type":"NDB","coordinate":{"latitude":42.4798,"longitude":-71.3886},"frequencyKhz":332},{"ident":"BE","name":"Mally","type":"NDB","coordinate":{"latitude":42.1268,"longitude":-86.3133},"frequencyKhz":397},{"ident":"BEA","name":"Beeville","type":"NDB","coordinate":{"latitude":28.3686,"longitude":-97.7954},"frequencyKhz":284},{"ident":"BEP","name":"Bay Creek","type":"NDB","coordinate":{"latitude":32.4574,"longitude":-83.7657},"frequencyKhz":350},{"ident":"BEQ","name":"Bessemer","type":"NDB","coordinate":{"latitude":33.3119,"longitude":-86.9232},"frequencyKhz":368},{"ident":"BES","name":"Bennettsville","type":"NDB","coordinate":{"latitude":34.6202,"longitude":-79.7332},"frequencyKhz":230},{"ident":"BET","name":"Bethel","type":"VORTAC","coordinate":{"latitude":60.7848,"longitude":-161.824},"frequencyKhz":114100},{"ident":"BEX","name":"Bloomfield","type":"NDB","coordinate":{"latitude":40.745,"longitude":-92.4305},"frequencyKhz":269},{"ident":"BF","name":"Tabey","type":"NDB","coordinate":{"latitude":41.5691,"longitude":-81.5738},"frequencyKhz":248},{"ident":"BF","name":"Creve","type":"NDB","coordinate":{"latitude":41.8027,"longitude":-103.499},"frequencyKhz":263},{"ident":"BF","name":"Nolla","type":"NDB","coordinate":{"latitude":47.6325,"longitude":-122.389},"frequencyKhz":362},{"ident":"BF","name":"Niley","type":"NDB","coordinate":{"latitude":35.3724,"longitude":-118.981},"frequencyKhz":385},{"ident":"BFA","name":"Boyne Falls","type":"NDB","coordinate":{"latitude":45.1667,"longitude":-84.9219},"frequencyKhz":263},{"ident":"BFD","name":"Bradford","type":"VOR-DME","coordinate":{"latitude":41.7864,"longitude":-78.6194},"frequencyKhz":116600},{"ident":"BFE","name":"Brownfield","type":"NDB","coordinate":{"latitude":33.1792,"longitude":-102.191},"frequencyKhz":311},{"ident":"BFF","name":"Scottsbluff","type":"VORTAC","coordinate":{"latitude":41.8942,"longitude":-103.482},"frequencyKhz":112600},{"ident":"BFK","name":"Buffalo","type":"NDB","coordinate":{"latitude":36.8642,"longitude":-99.6201},"frequencyKhz":215},{"ident":"BFM","name":"Brookley","type":"VORTAC","coordinate":{"latitude":30.6127,"longitude":-88.0555},"frequencyKhz":112800},{"ident":"BFR","name":"Bedford","type":"NDB","coordinate":{"latitude":38.8394,"longitude":-86.4368},"frequencyKhz":344},{"ident":"BFV","name":"Burns Flat","type":"VORTAC","coordinate":{"latitude":35.2369,"longitude":-99.2062},"frequencyKhz":110000},{"ident":"BFW","name":"Silver Bay","type":"NDB","coordinate":{"latitude":47.2506,"longitude":-91.4141},"frequencyKhz":350},{"ident":"BG","name":"Totte","type":"NDB","coordinate":{"latitude":44.7275,"longitude":-68.7129},"frequencyKhz":227},{"ident":"BG","name":"Smite","type":"NDB","coordinate":{"latitude":42.1047,"longitude":-75.8912},"frequencyKhz":332},{"ident":"BGD","name":"Borger","type":"VORTAC","coordinate":{"latitude":35.8071,"longitude":-101.382},"frequencyKhz":108600},{"ident":"BGF","name":"Boiling Fork","type":"NDB","coordinate":{"latitude":35.178,"longitude":-86.0682},"frequencyKhz":263},{"ident":"BGQ","name":"Big Lake","type":"VORTAC","coordinate":{"latitude":61.5695,"longitude":-149.967},"frequencyKhz":112500},{"ident":"BGR","name":"Bangor","type":"VORTAC","coordinate":{"latitude":44.8418,"longitude":-68.874},"frequencyKhz":114800},{"ident":"BGS","name":"Big Spring","type":"VORTAC","coordinate":{"latitude":32.3856,"longitude":-101.484},"frequencyKhz":114300},{"ident":"BH","name":"Mcden","type":"NDB","coordinate":{"latitude":33.5113,"longitude":-86.8456},"frequencyKhz":224},{"ident":"BH","name":"Surry","type":"NDB","coordinate":{"latitude":44.5387,"longitude":-68.3066},"frequencyKhz":330},{"ident":"BHC","name":"Baxley","type":"NDB","coordinate":{"latitude":31.712,"longitude":-82.3902},"frequencyKhz":376},{"ident":"BHG","name":"Brashear","type":"NDB","coordinate":{"latitude":33.1584,"longitude":-95.6183},"frequencyKhz":338},{"ident":"BHN","name":"Buckhorn","type":"NDB","coordinate":{"latitude":37.6975,"longitude":-92.1038},"frequencyKhz":391},{"ident":"BHU","name":"Benje","type":"NDB","coordinate":{"latitude":40.3755,"longitude":-79.2717},"frequencyKhz":382},{"ident":"BHW","name":"Hardwood","type":"NDB","coordinate":{"latitude":44.2486,"longitude":-84.0839},"frequencyKhz":236},{"ident":"BI","name":"Jadan","type":"NDB","coordinate":{"latitude":46.6981,"longitude":-100.648},"frequencyKhz":230},{"ident":"BI","name":"Saige","type":"NDB","coordinate":{"latitude":45.8522,"longitude":-108.695},"frequencyKhz":251},{"ident":"BIB","name":"Bible Grove","type":"VORTAC","coordinate":{"latitude":38.9203,"longitude":-88.4818},"frequencyKhz":109000},{"ident":"BIE","name":"Beatrice","type":"VOR","coordinate":{"latitude":40.3014,"longitude":-96.7546},"frequencyKhz":110600},{"ident":"BIG","name":"Big Delta","type":"VORTAC","coordinate":{"latitude":64.0044,"longitude":-145.717},"frequencyKhz":114900},{"ident":"BIH","name":"Bishop","type":"VOR-DME","coordinate":{"latitude":37.377,"longitude":-118.367},"frequencyKhz":109600},{"ident":"BIL","name":"Billings","type":"VORTAC","coordinate":{"latitude":45.8086,"longitude":-108.625},"frequencyKhz":114500},{"ident":"BIS","name":"Bismarck","type":"VOR-DME","coordinate":{"latitude":46.7618,"longitude":-100.665},"frequencyKhz":116500},{"ident":"BIX","name":"Keesler","type":"TACAN","coordinate":{"latitude":30.4071,"longitude":-88.9297},"frequencyKhz":111800},{"ident":"BJB","name":"West Bend","type":"VOR","coordinate":{"latitude":43.422,"longitude":-88.1252},"frequencyKhz":109800},{"ident":"BJC","name":"Jeffco","type":"VOR-DME","coordinate":{"latitude":39.913,"longitude":-105.139},"frequencyKhz":115400},{"ident":"BJI","name":"Bemidji","type":"VORTAC","coordinate":{"latitude":47.5759,"longitude":-95.0248},"frequencyKhz":108600},{"ident":"BJT","name":"Bulldog","type":"NDB","coordinate":{"latitude":33.9515,"longitude":-83.2196},"frequencyKhz":221},{"ident":"BJU","name":"Big Blue","type":"NDB","coordinate":{"latitude":40.3636,"longitude":-96.8129},"frequencyKhz":248},{"ident":"BK","name":"Plein","type":"NDB","coordinate":{"latitude":43.2225,"longitude":-75.4826},"frequencyKhz":329},{"ident":"BKA","name":"Biorka Island","type":"VORTAC","coordinate":{"latitude":56.8594,"longitude":-135.551},"frequencyKhz":113800},{"ident":"BKD","name":"Breckenridge","type":"NDB","coordinate":{"latitude":32.7473,"longitude":-98.8912},"frequencyKhz":245},{"ident":"BKE","name":"Baker City","type":"VOR-DME","coordinate":{"latitude":44.8406,"longitude":-117.808},"frequencyKhz":115300},{"ident":"BKF","name":"Buckley","type":"TACAN","coordinate":{"latitude":39.7074,"longitude":-104.752},"frequencyKhz":109600},{"ident":"BKK","name":"Tri Co","type":"NDB","coordinate":{"latitude":30.8516,"longitude":-85.6013},"frequencyKhz":275},{"ident":"BKL","name":"Burke Lakefront","type":"NDB","coordinate":{"latitude":41.5287,"longitude":-81.6634},"frequencyKhz":416},{"ident":"BKO","name":"Barnwell","type":"NDB","coordinate":{"latitude":33.3468,"longitude":-81.4241},"frequencyKhz":392},{"ident":"BKS","name":"Brooks Co","type":"NDB","coordinate":{"latitude":27.2069,"longitude":-98.1218},"frequencyKhz":353},{"ident":"BKT","name":"Blackstone","type":"NDB","coordinate":{"latitude":37.1279,"longitude":-78.0414},"frequencyKhz":326},{"ident":"BKU","name":"Timber","type":"NDB","coordinate":{"latitude":46.348,"longitude":-104.256},"frequencyKhz":344},{"ident":"BKW","name":"Beckley","type":"VORTAC","coordinate":{"latitude":37.7803,"longitude":-81.1235},"frequencyKhz":117700},{"ident":"BKX","name":"Brookings","type":"VOR-DME","coordinate":{"latitude":44.3032,"longitude":-96.8151},"frequencyKhz":108800},{"ident":"BKZ","name":"Brinkley","type":"NDB","coordinate":{"latitude":34.8814,"longitude":-91.1777},"frequencyKhz":242},{"ident":"BL","name":"Belleville","type":"NDB","coordinate":{"latitude":38.4647,"longitude":-89.7564},"frequencyKhz":362},{"ident":"BL","name":"Yanks","type":"NDB","coordinate":{"latitude":43.06,"longitude":-87.8767},"frequencyKhz":260},{"ident":"BL","name":"Benza","type":"NDB","coordinate":{"latitude":48.8991,"longitude":-122.535},"frequencyKhz":338},{"ident":"BLD","name":"Boulder City","type":"VORTAC","coordinate":{"latitude":35.9958,"longitude":-114.864},"frequencyKhz":116700},{"ident":"BLE","name":"Lake Providence","type":"NDB","coordinate":{"latitude":32.8307,"longitude":-91.1901},"frequencyKhz":278},{"ident":"BLF","name":"Bluefield","type":"VORTAC","coordinate":{"latitude":37.3064,"longitude":-81.1943},"frequencyKhz":110000},{"ident":"BLH","name":"Blythe","type":"VORTAC","coordinate":{"latitude":33.5961,"longitude":-114.761},"frequencyKhz":117400},{"ident":"BM","name":"Claye","type":"NDB","coordinate":{"latitude":39.0564,"longitude":-86.5992},"frequencyKhz":382},{"ident":"BMC","name":"Brigham City","type":"NDB","coordinate":{"latitude":41.5158,"longitude":-112.078},"frequencyKhz":294},{"ident":"BMI","name":"Bloomington","type":"VOR-DME","coordinate":{"latitude":40.4808,"longitude":-88.9312},"frequencyKhz":108200},{"ident":"BML","name":"Berlin","type":"VOR-DME","coordinate":{"latitude":44.6334,"longitude":-71.1861},"frequencyKhz":110400},{"ident":"BMQ","name":"Burnet","type":"NDB","coordinate":{"latitude":30.7403,"longitude":-98.2362},"frequencyKhz":341},{"ident":"BMW","name":"Barrow Co","type":"NDB","coordinate":{"latitude":33.9354,"longitude":-83.5895},"frequencyKhz":404},{"ident":"BN","name":"Dobbs","type":"NDB","coordinate":{"latitude":36.031,"longitude":-86.7218},"frequencyKhz":304},{"ident":"BNA","name":"Nashville","type":"VORTAC","coordinate":{"latitude":36.137,"longitude":-86.6848},"frequencyKhz":114100},{"ident":"BNH","name":"Brenham","type":"NDB","coordinate":{"latitude":30.2224,"longitude":-96.3735},"frequencyKhz":362},{"ident":"BNR","name":"Benton Ridge","type":"NDB","coordinate":{"latitude":41.0167,"longitude":-83.6666},"frequencyKhz":334},{"ident":"BNW","name":"Boone","type":"NDB","coordinate":{"latitude":42.0543,"longitude":-93.8531},"frequencyKhz":407},{"ident":"BO","name":"Booie","type":"NDB","coordinate":{"latitude":36.3986,"longitude":-82.4962},"frequencyKhz":221},{"ident":"BO","name":"Ustik","type":"NDB","coordinate":{"latitude":43.5969,"longitude":-116.315},"frequencyKhz":359},{"ident":"BO","name":"Miltt","type":"NDB","coordinate":{"latitude":42.2738,"longitude":-71.0492},"frequencyKhz":375},{"ident":"BOB","name":"Bruck","type":"NDB","coordinate":{"latitude":61.1678,"longitude":-150.177},"frequencyKhz":387},{"ident":"BOD","name":"Bowman","type":"NDB","coordinate":{"latitude":46.1851,"longitude":-103.429},"frequencyKhz":374},{"ident":"BOI","name":"Boise","type":"VORTAC","coordinate":{"latitude":43.5528,"longitude":-116.192},"frequencyKhz":113300},{"ident":"BOS","name":"Boston","type":"VORTAC","coordinate":{"latitude":42.3574,"longitude":-70.9895},"frequencyKhz":112700},{"ident":"BOY","name":"Boysen Reservoir","type":"VOR-DME","coordinate":{"latitude":43.4632,"longitude":-108.3},"frequencyKhz":117800},{"ident":"BOZ","name":"Whiteside","type":"NDB","coordinate":{"latitude":41.7111,"longitude":-89.7856},"frequencyKhz":254},{"ident":"BP","name":"Kazoo","type":"NDB","coordinate":{"latitude":29.9963,"longitude":-94.1064},"frequencyKhz":257},{"ident":"BPI","name":"Big Piney","type":"VOR-DME","coordinate":{"latitude":42.5794,"longitude":-110.109},"frequencyKhz":116500},{"ident":"BPO","name":"Piney Grove","type":"NDB","coordinate":{"latitude":36.5395,"longitude":-84.476},"frequencyKhz":403},{"ident":"BPT","name":"Beaumont","type":"VOR-DME","coordinate":{"latitude":29.9461,"longitude":-94.0162},"frequencyKhz":114500},{"ident":"BPW","name":"Osceola","type":"NDB","coordinate":{"latitude":35.6927,"longitude":-90.0129},"frequencyKhz":239},{"ident":"BQ","name":"Jeffi","type":"NDB","coordinate":{"latitude":31.2283,"longitude":-81.5427},"frequencyKhz":275},{"ident":"BQM","name":"Bowman","type":"VOR-DME","coordinate":{"latitude":38.2302,"longitude":-85.6647},"frequencyKhz":112200},{"ident":"BQP","name":"Bastrop","type":"NDB","coordinate":{"latitude":32.7551,"longitude":-91.8835},"frequencyKhz":329},{"ident":"BQS","name":"Braymer","type":"VOR-DME","coordinate":{"latitude":39.6306,"longitude":-93.8753},"frequencyKhz":111200},{"ident":"BQU","name":"Bullion","type":"VOR-DME","coordinate":{"latitude":40.7597,"longitude":-115.761},"frequencyKhz":114500},{"ident":"BQZ","name":"Robert","type":"VOR-DME","coordinate":{"latitude":40.4637,"longitude":-106.872},"frequencyKhz":112200},{"ident":"BR","name":"Redan","type":"NDB","coordinate":{"latitude":33.6454,"longitude":-84.3112},"frequencyKhz":266},{"ident":"BR","name":"Depoo","type":"NDB","coordinate":{"latitude":25.9836,"longitude":-97.509},"frequencyKhz":393},{"ident":"BR","name":"Burns","type":"NDB","coordinate":{"latitude":40.6542,"longitude":-91.123},"frequencyKhz":390},{"ident":"BR","name":"Larew","type":"NDB","coordinate":{"latitude":46.4566,"longitude":-94.0228},"frequencyKhz":251},{"ident":"BRA","name":"Broad River","type":"NDB","coordinate":{"latitude":35.2728,"longitude":-82.471},"frequencyKhz":379},{"ident":"BRD","name":"Brainerd","type":"VORTAC","coordinate":{"latitude":46.3483,"longitude":-94.026},"frequencyKhz":116900},{"ident":"BRK","name":"Black Forest","type":"VORTAC","coordinate":{"latitude":38.9445,"longitude":-104.633},"frequencyKhz":112500},{"ident":"BRL","name":"Burlington","type":"VORTAC","coordinate":{"latitude":40.7234,"longitude":-90.9259},"frequencyKhz":111400},{"ident":"BRO","name":"Brownsville","type":"VORTAC","coordinate":{"latitude":25.9241,"longitude":-97.3753},"frequencyKhz":116300},{"ident":"BRV","name":"Brooke","type":"VORTAC","coordinate":{"latitude":38.3363,"longitude":-77.3529},"frequencyKhz":114500},{"ident":"BRW","name":"Barrow","type":"VOR-DME","coordinate":{"latitude":71.2734,"longitude":-156.788},"frequencyKhz":116200},{"ident":"BSF","name":"Bradshaw","type":"NDB","coordinate":{"latitude":19.7634,"longitude":-155.594},"frequencyKhz":339},{"ident":"BSR","name":"Big Sur","type":"VORTAC","coordinate":{"latitude":36.1813,"longitude":-121.642},"frequencyKhz":114000},{"ident":"BST","name":"Belfast","type":"NDB","coordinate":{"latitude":44.411,"longitude":-69.0107},"frequencyKhz":278},{"ident":"BSV","name":"Briggs","type":"VOR-DME","coordinate":{"latitude":40.7407,"longitude":-81.4321},"frequencyKhz":112400},{"ident":"BT","name":"Batol","type":"NDB","coordinate":{"latitude":42.3619,"longitude":-85.1842},"frequencyKhz":272},{"ident":"BT","name":"Rundi","type":"NDB","coordinate":{"latitude":30.5829,"longitude":-91.211},"frequencyKhz":284},{"ident":"BT","name":"Herro","type":"NDB","coordinate":{"latitude":44.5322,"longitude":-73.2495},"frequencyKhz":382},{"ident":"BTG","name":"Battle Ground","type":"VORTAC","coordinate":{"latitude":45.7478,"longitude":-122.592},"frequencyKhz":116600},{"ident":"BTI","name":"Barter Island","type":"NDB","coordinate":{"latitude":70.1307,"longitude":-143.644},"frequencyKhz":308},{"ident":"BTL","name":"Battle Creek","type":"VORTAC","coordinate":{"latitude":42.3098,"longitude":-85.2523},"frequencyKhz":109400},{"ident":"BTN","name":"Britton","type":"NDB","coordinate":{"latitude":45.8192,"longitude":-97.7456},"frequencyKhz":386},{"ident":"BTR","name":"Baton Rouge","type":"VORTAC","coordinate":{"latitude":30.4851,"longitude":-91.2941},"frequencyKhz":116500},{"ident":"BTS","name":"Wood River","type":"NDB","coordinate":{"latitude":58.9997,"longitude":-158.548},"frequencyKhz":429},{"ident":"BTT","name":"Bettles","type":"VOR-DME","coordinate":{"latitude":66.905,"longitude":-151.536},"frequencyKhz":116000},{"ident":"BTV","name":"Burlington","type":"VORTAC","coordinate":{"latitude":44.3971,"longitude":-73.1826},"frequencyKhz":117500},{"ident":"BTY","name":"Beatty","type":"VORTAC","coordinate":{"latitude":36.8006,"longitude":-116.748},"frequencyKhz":114700},{"ident":"BU","name":"Boutn","type":"NDB","coordinate":{"latitude":39.8193,"longitude":-83.2049},"frequencyKhz":230},{"ident":"BU","name":"Klump","type":"NDB","coordinate":{"latitude":43.0002,"longitude":-78.6508},"frequencyKhz":231},{"ident":"BUA","name":"Buffalo","type":"VOR-DME","coordinate":{"latitude":45.5522,"longitude":-103.456},"frequencyKhz":109400},{"ident":"BUB","name":"Burwell","type":"NDB","coordinate":{"latitude":41.7747,"longitude":-99.1455},"frequencyKhz":377},{"ident":"BUD","name":"Buckeye","type":"VOR","coordinate":{"latitude":40.6166,"longitude":-83.0638},"frequencyKhz":109800},{"ident":"BUF","name":"Buffalo","type":"VOR-DME","coordinate":{"latitude":42.929,"longitude":-78.6463},"frequencyKhz":116400},{"ident":"BUH","name":"Anne Arundel","type":"NDB","coordinate":{"latitude":39.0841,"longitude":-76.76},"frequencyKhz":260},{"ident":"BUM","name":"Butler","type":"VORTAC","coordinate":{"latitude":38.2721,"longitude":-94.4882},"frequencyKhz":115900},{"ident":"BUP","name":"Burnham","type":"NDB","coordinate":{"latitude":44.6973,"longitude":-69.3578},"frequencyKhz":348},{"ident":"BUU","name":"Burbun","type":"VOR-DME","coordinate":{"latitude":42.6893,"longitude":-88.3018},"frequencyKhz":114500},{"ident":"BV","name":"Dewie","type":"NDB","coordinate":{"latitude":36.8395,"longitude":-96.014},"frequencyKhz":201},{"ident":"BV","name":"Almnd","type":"NDB","coordinate":{"latitude":35.7032,"longitude":-91.7978},"frequencyKhz":335},{"ident":"BVG","name":"Boll Weevil","type":"NDB","coordinate":{"latitude":31.3368,"longitude":-85.9833},"frequencyKhz":352},{"ident":"BVK","name":"Buckland","type":"NDB-DME","coordinate":{"latitude":65.9798,"longitude":-161.149},"frequencyKhz":325},{"ident":"BVL","name":"Bonneville","type":"VORTAC","coordinate":{"latitude":40.7261,"longitude":-113.757},"frequencyKhz":112300},{"ident":"BVN","name":"Alaby","type":"NDB","coordinate":{"latitude":41.7296,"longitude":-98.0527},"frequencyKhz":332},{"ident":"BVO","name":"Bartlesville","type":"VOR-DME","coordinate":{"latitude":36.8342,"longitude":-96.0183},"frequencyKhz":117900},{"ident":"BVP","name":"Nixin","type":"NDB","coordinate":{"latitude":29.9933,"longitude":-95.215},"frequencyKhz":326},{"ident":"BVQ","name":"Beaver Creek","type":"NDB","coordinate":{"latitude":37.0175,"longitude":-86.0092},"frequencyKhz":260},{"ident":"BVR","name":"Byers","type":"VOR-DME","coordinate":{"latitude":39.7658,"longitude":-103.928},"frequencyKhz":113500},{"ident":"BVS","name":"Skagit/Bay View","type":"NDB","coordinate":{"latitude":48.4686,"longitude":-122.419},"frequencyKhz":240},{"ident":"BVT","name":"Boiler","type":"VORTAC","coordinate":{"latitude":40.5561,"longitude":-87.0693},"frequencyKhz":115100},{"ident":"BVV","name":"Brookhaven","type":"NDB","coordinate":{"latitude":31.608,"longitude":-90.4103},"frequencyKhz":407},{"ident":"BW","name":"Noora","type":"NDB","coordinate":{"latitude":36.88,"longitude":-86.4816},"frequencyKhz":236},{"ident":"BWD","name":"Brownwood","type":"VOR-DME","coordinate":{"latitude":31.8926,"longitude":-98.9575},"frequencyKhz":108600},{"ident":"BWG","name":"Bowling Green","type":"VORTAC","coordinate":{"latitude":36.9287,"longitude":-86.4434},"frequencyKhz":117900},{"ident":"BWK","name":"Bunkie","type":"NDB","coordinate":{"latitude":30.8654,"longitude":-92.2341},"frequencyKhz":397},{"ident":"BWP","name":"Breckenridge-Wahpeton","type":"NDB","coordinate":{"latitude":46.2449,"longitude":-96.6036},"frequencyKhz":233},{"ident":"BWR","name":"Brewster Co","type":"NDB","coordinate":{"latitude":30.4582,"longitude":-103.647},"frequencyKhz":412},{"ident":"BWS","name":"Boles","type":"VOR-DME","coordinate":{"latitude":32.8213,"longitude":-106.013},"frequencyKhz":109600},{"ident":"BWZ","name":"Broadway","type":"VOR-DME","coordinate":{"latitude":40.7984,"longitude":-74.8218},"frequencyKhz":114200},{"ident":"BX","name":"Carma","type":"NDB","coordinate":{"latitude":30.8816,"longitude":-89.8621},"frequencyKhz":353},{"ident":"BXG","name":"Burke County","type":"NDB","coordinate":{"latitude":33.0425,"longitude":-82.0048},"frequencyKhz":356},{"ident":"BXK","name":"Buckeye","type":"VORTAC","coordinate":{"latitude":33.4535,"longitude":-112.825},"frequencyKhz":110600},{"ident":"BXR","name":"Big Doctor","type":"NDB","coordinate":{"latitude":45.8213,"longitude":-92.3664},"frequencyKhz":203},{"ident":"BXZ","name":"West Branch","type":"VOR-DME","coordinate":{"latitude":44.2427,"longitude":-84.1835},"frequencyKhz":113200},{"ident":"BYI","name":"Burley","type":"VOR-DME","coordinate":{"latitude":42.5802,"longitude":-113.866},"frequencyKhz":114100},{"ident":"BYN","name":"Bryan","type":"NDB","coordinate":{"latitude":41.4798,"longitude":-84.4661},"frequencyKhz":260},{"ident":"BYP","name":"Bonham","type":"VORTAC","coordinate":{"latitude":33.5375,"longitude":-96.2341},"frequencyKhz":114600},{"ident":"BYY","name":"Bay City","type":"NDB","coordinate":{"latitude":28.9725,"longitude":-95.8591},"frequencyKhz":344},{"ident":"BZ","name":"Fossi","type":"NDB","coordinate":{"latitude":35.4507,"longitude":-99.2015},"frequencyKhz":393},{"ident":"BZ","name":"Manni","type":"NDB","coordinate":{"latitude":45.8718,"longitude":-111.286},"frequencyKhz":266},{"ident":"BZ","name":"Bullo","type":"NDB","coordinate":{"latitude":32.4177,"longitude":-81.6619},"frequencyKhz":407},{"ident":"BZA","name":"Bard","type":"VORTAC","coordinate":{"latitude":32.7681,"longitude":-114.603},"frequencyKhz":116800},{"ident":"BZJ","name":"Bellgrove","type":"NDB","coordinate":{"latitude":40.4359,"longitude":-76.553},"frequencyKhz":328},{"ident":"BZK","name":"Brookfield","type":"NDB","coordinate":{"latitude":39.7642,"longitude":-93.1091},"frequencyKhz":383},{"ident":"BZM","name":"Barretts Mt","type":"VOR-DME","coordinate":{"latitude":35.8689,"longitude":-81.2405},"frequencyKhz":110800},{"ident":"BZN","name":"Bozeman","type":"VOR-DME","coordinate":{"latitude":45.7839,"longitude":-111.155},"frequencyKhz":112400},{"ident":"CA","name":"Harvs","type":"NDB","coordinate":{"latitude":38.1449,"longitude":-97.2761},"frequencyKhz":395},{"ident":"CA","name":"Murry","type":"NDB","coordinate":{"latitude":33.9672,"longitude":-81.2447},"frequencyKhz":362},{"ident":"CAD","name":"Cadillac","type":"NDB","coordinate":{"latitude":44.275,"longitude":-85.4142},"frequencyKhz":269},{"ident":"CAE","name":"Columbia","type":"VORTAC","coordinate":{"latitude":33.8573,"longitude":-81.0539},"frequencyKhz":114700},{"ident":"CAM","name":"Cambridge","type":"VOR-DME","coordinate":{"latitude":42.9943,"longitude":-73.344},"frequencyKhz":115000},{"ident":"CAN","name":"Carney","type":"NDB","coordinate":{"latitude":47.4106,"longitude":-122.839},"frequencyKhz":274},{"ident":"CAO","name":"Clayton","type":"NDB","coordinate":{"latitude":36.444,"longitude":-103.149},"frequencyKhz":332},{"ident":"CAT","name":"Chatham","type":"NDB","coordinate":{"latitude":40.7409,"longitude":-74.4298},"frequencyKhz":254},{"ident":"CAV","name":"Clarion","type":"NDB","coordinate":{"latitude":42.7458,"longitude":-93.7588},"frequencyKhz":387},{"ident":"CBE","name":"Cumberland","type":"NDB","coordinate":{"latitude":39.6482,"longitude":-78.7473},"frequencyKhz":317},{"ident":"CBG","name":"Cambridge","type":"NDB","coordinate":{"latitude":45.5575,"longitude":-93.2622},"frequencyKhz":350},{"ident":"CBM","name":"Caledonia","type":"VORTAC","coordinate":{"latitude":33.6415,"longitude":-88.4385},"frequencyKhz":115200},{"ident":"CBU","name":"Columbia","type":"TACAN","coordinate":{"latitude":45.5886,"longitude":-122.611},"frequencyKhz":109200},{"ident":"CC","name":"Kanan","type":"NDB","coordinate":{"latitude":38.0464,"longitude":-122.033},"frequencyKhz":335},{"ident":"CCC","name":"Calverton","type":"VOR-DME","coordinate":{"latitude":40.9296,"longitude":-72.7989},"frequencyKhz":117200},{"ident":"CCJ","name":"Clark Co","type":"NDB","coordinate":{"latitude":39.8736,"longitude":-83.7791},"frequencyKhz":341},{"ident":"CCR","name":"Concord","type":"VOR-DME","coordinate":{"latitude":38.0449,"longitude":-122.045},"frequencyKhz":117000},{"ident":"CCT","name":"Central City","type":"VORTAC","coordinate":{"latitude":37.3824,"longitude":-87.2637},"frequencyKhz":109800},{"ident":"CCV","name":"Cape Charles","type":"VORTAC","coordinate":{"latitude":37.3475,"longitude":-75.9977},"frequencyKhz":112200},{"ident":"CD","name":"Elfee","type":"NDB","coordinate":{"latitude":55.2961,"longitude":-162.789},"frequencyKhz":341},{"ident":"CD","name":"Dawes","type":"NDB","coordinate":{"latitude":42.7545,"longitude":-103.175},"frequencyKhz":362},{"ident":"CDB","name":"Cold Bay","type":"VORTAC","coordinate":{"latitude":55.2674,"longitude":-162.774},"frequencyKhz":112600},{"ident":"CDC","name":"Cedar City","type":"VOR-DME","coordinate":{"latitude":37.7873,"longitude":-113.068},"frequencyKhz":117300},{"ident":"CDH","name":"Camden","type":"NDB","coordinate":{"latitude":33.6135,"longitude":-92.7675},"frequencyKhz":335},{"ident":"CDN","name":"Camden","type":"NDB","coordinate":{"latitude":34.2835,"longitude":-80.5615},"frequencyKhz":263},{"ident":"CDR","name":"Chadron","type":"VOR-DME","coordinate":{"latitude":42.5588,"longitude":-103.312},"frequencyKhz":113400},{"ident":"CDS","name":"Childress","type":"VORTAC","coordinate":{"latitude":34.3691,"longitude":-100.289},"frequencyKhz":117600},{"ident":"CDX","name":"Cumberland River","type":"NDB","coordinate":{"latitude":36.9962,"longitude":-84.6813},"frequencyKhz":388},{"ident":"CE","name":"Kobra","type":"NDB","coordinate":{"latitude":30.8529,"longitude":-86.5366},"frequencyKhz":201},{"ident":"CEC","name":"Crescent City","type":"VORTAC","coordinate":{"latitude":41.7796,"longitude":-124.241},"frequencyKhz":109000},{"ident":"CEF","name":"Westover","type":"VORTAC","coordinate":{"latitude":42.1975,"longitude":-72.5263},"frequencyKhz":114000},{"ident":"CEK","name":"Crete","type":"NDB","coordinate":{"latitude":40.6241,"longitude":-96.9276},"frequencyKhz":420},{"ident":"CEP","name":"Capitan","type":"NDB","coordinate":{"latitude":33.4899,"longitude":-105.404},"frequencyKhz":278},{"ident":"CEU","name":"Clemson","type":"NDB","coordinate":{"latitude":34.6738,"longitude":-82.8868},"frequencyKhz":257},{"ident":"CEV","name":"Connersville","type":"NDB","coordinate":{"latitude":39.6976,"longitude":-85.1344},"frequencyKhz":275},{"ident":"CEW","name":"Crestview","type":"VORTAC","coordinate":{"latitude":30.8262,"longitude":-86.6791},"frequencyKhz":115900},{"ident":"CEZ","name":"Cortez","type":"VOR-DME","coordinate":{"latitude":37.3898,"longitude":-108.562},"frequencyKhz":108400},{"ident":"CFB","name":"Binghamton","type":"VORTAC","coordinate":{"latitude":42.1575,"longitude":-76.1365},"frequencyKhz":112200},{"ident":"CFJ","name":"Crawfordsville","type":"NDB","coordinate":{"latitude":39.981,"longitude":-86.9157},"frequencyKhz":388},{"ident":"CFV","name":"Coffeyville","type":"NDB","coordinate":{"latitude":37.0933,"longitude":-95.5713},"frequencyKhz":212},{"ident":"CFX","name":"Cadiz","type":"NDB","coordinate":{"latitude":40.2367,"longitude":-81.0132},"frequencyKhz":239},{"ident":"CFY","name":"Evans","type":"NDB","coordinate":{"latitude":33.856,"longitude":-79.7659},"frequencyKhz":420},{"ident":"CG","name":"Dutch","type":"NDB","coordinate":{"latitude":37.2534,"longitude":-89.7006},"frequencyKhz":248},{"ident":"CGE","name":"Cambridge","type":"NDB","coordinate":{"latitude":38.5382,"longitude":-76.0319},"frequencyKhz":355},{"ident":"CGG","name":"Grayling","type":"VOR","coordinate":{"latitude":44.6816,"longitude":-84.7289},"frequencyKhz":109800},{"ident":"CGI","name":"Cape Girardeau","type":"VOR-DME","coordinate":{"latitude":37.2275,"longitude":-89.5724},"frequencyKhz":112900},{"ident":"CGL","name":"Coghlan Island","type":"NDB","coordinate":{"latitude":58.3593,"longitude":-134.7},"frequencyKhz":212},{"ident":"CGQ","name":"Powell","type":"NDB","coordinate":{"latitude":32.064,"longitude":-96.428},"frequencyKhz":344},{"ident":"CGT","name":"Chicago Heights","type":"VORTAC","coordinate":{"latitude":41.51,"longitude":-87.5715},"frequencyKhz":114200},{"ident":"CH","name":"Ashly","type":"NDB","coordinate":{"latitude":32.9763,"longitude":-80.0975},"frequencyKhz":329},{"ident":"CHC","name":"Grens","type":"NDB","coordinate":{"latitude":40.0101,"longitude":-83.029},"frequencyKhz":272},{"ident":"CHD","name":"Chandler","type":"NDB","coordinate":{"latitude":33.2665,"longitude":-111.808},"frequencyKhz":407},{"ident":"CHE","name":"Hayden","type":"VOR-DME","coordinate":{"latitude":40.5201,"longitude":-107.305},"frequencyKhz":115600},{"ident":"CHN","name":"Wauchula","type":"NDB","coordinate":{"latitude":27.51,"longitude":-81.8833},"frequencyKhz":261},{"ident":"CHQ","name":"Charleston","type":"NDB","coordinate":{"latitude":36.8451,"longitude":-89.3567},"frequencyKhz":208},{"ident":"CHS","name":"Charleston","type":"VORTAC","coordinate":{"latitude":32.8943,"longitude":-80.0378},"frequencyKhz":113500},{"ident":"CHT","name":"Chillicothe","type":"NDB","coordinate":{"latitude":39.7771,"longitude":-93.4942},"frequencyKhz":375},{"ident":"CHU","name":"Caledonia","type":"NDB","coordinate":{"latitude":43.5869,"longitude":-91.4904},"frequencyKhz":209},{"ident":"CI","name":"Koloe","type":"NDB","coordinate":{"latitude":46.3325,"longitude":-84.5423},"frequencyKhz":400},{"ident":"CI","name":"Cindy","type":"NDB","coordinate":{"latitude":41.8857,"longitude":-91.8024},"frequencyKhz":326},{"ident":"CIC","name":"Chico","type":"VOR-DME","coordinate":{"latitude":39.7898,"longitude":-121.847},"frequencyKhz":109800},{"ident":"CID","name":"Cedar Rapids","type":"VOR-DME","coordinate":{"latitude":41.8875,"longitude":-91.7857},"frequencyKhz":114100},{"ident":"CIE","name":"Cochise","type":"VORTAC","coordinate":{"latitude":32.0334,"longitude":-109.758},"frequencyKhz":115800},{"ident":"CII","name":"Choteau","type":"NDB","coordinate":{"latitude":47.8225,"longitude":-112.171},"frequencyKhz":269},{"ident":"CIM","name":"Cimarron","type":"VORTAC","coordinate":{"latitude":36.4914,"longitude":-104.872},"frequencyKhz":116400},{"ident":"CIN","name":"Carroll","type":"NDB","coordinate":{"latitude":42.045,"longitude":-94.7852},"frequencyKhz":397},{"ident":"CIP","name":"Clarion","type":"VOR-DME","coordinate":{"latitude":41.1463,"longitude":-79.458},"frequencyKhz":112900},{"ident":"CIR","name":"Cairo","type":"NDB","coordinate":{"latitude":37.0617,"longitude":-89.2234},"frequencyKhz":397},{"ident":"CJ","name":"Calde","type":"NDB","coordinate":{"latitude":39.7971,"longitude":-89.592},"frequencyKhz":240},{"ident":"CJJ","name":"Cresco","type":"NDB","coordinate":{"latitude":43.366,"longitude":-92.131},"frequencyKhz":293},{"ident":"CJY","name":"Clay","type":"NDB","coordinate":{"latitude":43.0528,"longitude":-75.2643},"frequencyKhz":275},{"ident":"CK","name":"Snuff","type":"NDB","coordinate":{"latitude":36.5271,"longitude":-87.3865},"frequencyKhz":335},{"ident":"CKB","name":"Clarksburg","type":"VOR-DME","coordinate":{"latitude":39.2532,"longitude":-80.2679},"frequencyKhz":112600},{"ident":"CKC","name":"Cook County","type":"NDB","coordinate":{"latitude":47.8401,"longitude":-90.3856},"frequencyKhz":358},{"ident":"CKH","name":"Koko Head","type":"VORTAC","coordinate":{"latitude":21.2652,"longitude":-157.703},"frequencyKhz":113900},{"ident":"CKI","name":"Kingstree","type":"NDB","coordinate":{"latitude":33.7178,"longitude":-79.855},"frequencyKhz":404},{"ident":"CKM","name":"Clarksdale","type":"NDB","coordinate":{"latitude":34.293,"longitude":-90.5157},"frequencyKhz":341},{"ident":"CKN","name":"Crookston","type":"NDB","coordinate":{"latitude":47.8394,"longitude":-96.6159},"frequencyKhz":400},{"ident":"CKP","name":"Pilot Rock","type":"NDB","coordinate":{"latitude":42.7322,"longitude":-95.5531},"frequencyKhz":423},{"ident":"CKV","name":"Clarksville","type":"VOR-DME","coordinate":{"latitude":36.622,"longitude":-87.4126},"frequencyKhz":110600},{"ident":"CKW","name":"Cherokee","type":"VOR-DME","coordinate":{"latitude":41.7557,"longitude":-107.582},"frequencyKhz":115000},{"ident":"CKZ","name":"Pennridge","type":"VOR-DME","coordinate":{"latitude":40.3909,"longitude":-75.2888},"frequencyKhz":108850},{"ident":"CL","name":"Harri","type":"NDB","coordinate":{"latitude":41.3386,"longitude":-81.9644},"frequencyKhz":344},{"ident":"CL","name":"Rowdy","type":"NDB","coordinate":{"latitude":30.4937,"longitude":-96.3377},"frequencyKhz":260},{"ident":"CL","name":"Elwha","type":"NDB","coordinate":{"latitude":48.1424,"longitude":-123.67},"frequencyKhz":515},{"ident":"CL","name":"Tryon","type":"NDB","coordinate":{"latitude":35.1578,"longitude":-81.0203},"frequencyKhz":242},{"ident":"CLB","name":"Carolina Beach","type":"NDB","coordinate":{"latitude":34.1063,"longitude":-77.9617},"frequencyKhz":216},{"ident":"CLI","name":"Clintonville","type":"NDB","coordinate":{"latitude":44.6188,"longitude":-88.7332},"frequencyKhz":209},{"ident":"CLK","name":"Clinton","type":"NDB","coordinate":{"latitude":35.5392,"longitude":-98.9351},"frequencyKhz":320},{"ident":"CLL","name":"College Station","type":"VORTAC","coordinate":{"latitude":30.605,"longitude":-96.4207},"frequencyKhz":113300},{"ident":"CLT","name":"Charlotte","type":"VOR-DME","coordinate":{"latitude":35.1903,"longitude":-80.9517},"frequencyKhz":115000},{"ident":"CM","name":"Galey","type":"NDB","coordinate":{"latitude":47.1157,"longitude":-88.4012},"frequencyKhz":275},{"ident":"CM","name":"Sumie","type":"NDB","coordinate":{"latitude":39.9862,"longitude":-82.7545},"frequencyKhz":391},{"ident":"CM","name":"Veals","type":"NDB","coordinate":{"latitude":39.9662,"longitude":-88.1824},"frequencyKhz":407},{"ident":"CMA","name":"Camarillo","type":"VOR-DME","coordinate":{"latitude":34.2125,"longitude":-119.094},"frequencyKhz":115800},{"ident":"CME","name":"Chisum","type":"VORTAC","coordinate":{"latitude":33.3375,"longitude":-104.621},"frequencyKhz":116100},{"ident":"CMI","name":"Champaign","type":"VORTAC","coordinate":{"latitude":40.0345,"longitude":-88.2761},"frequencyKhz":110000},{"ident":"CMJ","name":"Clam Cove","type":"NDB","coordinate":{"latitude":55.3454,"longitude":-131.696},"frequencyKhz":396},{"ident":"CMK","name":"Carmel","type":"VOR-DME","coordinate":{"latitude":41.2801,"longitude":-73.5814},"frequencyKhz":116600},{"ident":"CMQ","name":"Campbell Lake","type":"NDB","coordinate":{"latitude":61.171,"longitude":-150.048},"frequencyKhz":338},{"ident":"CMX","name":"Houghton","type":"VOR-DME","coordinate":{"latitude":47.1703,"longitude":-88.4854},"frequencyKhz":112800},{"ident":"CMY","name":"Mc Coy","type":"NDB","coordinate":{"latitude":43.9378,"longitude":-90.6419},"frequencyKhz":412},{"ident":"CN","name":"Leroi","type":"NDB","coordinate":{"latitude":31.7409,"longitude":-97.0782},"frequencyKhz":378},{"ident":"CNC","name":"Chariton","type":"NDB","coordinate":{"latitude":41.0168,"longitude":-93.362},"frequencyKhz":335},{"ident":"CNG","name":"Cunningham","type":"VORTAC","coordinate":{"latitude":37.0086,"longitude":-88.8369},"frequencyKhz":113100},{"ident":"CNH","name":"Claremont","type":"NDB","coordinate":{"latitude":43.3693,"longitude":-72.3711},"frequencyKhz":233},{"ident":"CNK","name":"Concordia","type":"NDB","coordinate":{"latitude":39.5533,"longitude":-97.6512},"frequencyKhz":335},{"ident":"CNM","name":"Carlsbad","type":"VORTAC","coordinate":{"latitude":32.2566,"longitude":-104.226},"frequencyKhz":116300},{"ident":"CNP","name":"Chappell","type":"NDB","coordinate":{"latitude":41.0767,"longitude":-102.459},"frequencyKhz":383},{"ident":"CNQ","name":"Callahan","type":"NDB","coordinate":{"latitude":37.2614,"longitude":-80.1581},"frequencyKhz":379},{"ident":"CNU","name":"Chanute","type":"VOR-DME","coordinate":{"latitude":37.6261,"longitude":-95.5935},"frequencyKhz":109200},{"ident":"CNX","name":"Corona","type":"VORTAC","coordinate":{"latitude":34.367,"longitude":-105.678},"frequencyKhz":115500},{"ident":"CO","name":"Petey","type":"NDB","coordinate":{"latitude":38.6943,"longitude":-104.716},"frequencyKhz":407},{"ident":"CO","name":"Epsom","type":"NDB","coordinate":{"latitude":43.1188,"longitude":-71.4524},"frequencyKhz":216},{"ident":"CO","name":"Colfa","type":"NDB","coordinate":{"latitude":39.6569,"longitude":-86.1855},"frequencyKhz":232},{"ident":"CO","name":"Leeny","type":"NDB","coordinate":{"latitude":47.7428,"longitude":-116.961},"frequencyKhz":347},{"ident":"CO","name":"Zodia","type":"NDB","coordinate":{"latitude":38.7167,"longitude":-92.2685},"frequencyKhz":407},{"ident":"COD","name":"Cody","type":"VOR-DME","coordinate":{"latitude":44.6204,"longitude":-108.965},"frequencyKhz":111800},{"ident":"COE","name":"Coeur D Alene","type":"VOR-DME","coordinate":{"latitude":47.7737,"longitude":-116.821},"frequencyKhz":108800},{"ident":"COF","name":"Patrick","type":"TACAN","coordinate":{"latitude":28.2377,"longitude":-80.6118},"frequencyKhz":115000},{"ident":"COI","name":"Merritt Island","type":"NDB","coordinate":{"latitude":28.3408,"longitude":-80.6884},"frequencyKhz":247},{"ident":"COL","name":"Colts Neck","type":"VOR-DME","coordinate":{"latitude":40.3117,"longitude":-74.1598},"frequencyKhz":115400},{"ident":"COM","name":"Coleman","type":"NDB","coordinate":{"latitude":31.8413,"longitude":-99.4062},"frequencyKhz":385},{"ident":"CON","name":"Concord","type":"VORTAC","coordinate":{"latitude":43.2198,"longitude":-71.5755},"frequencyKhz":112900},{"ident":"COO","name":"Covington","type":"NDB","coordinate":{"latitude":35.5897,"longitude":-89.5873},"frequencyKhz":326},{"ident":"COQ","name":"Cloquet","type":"NDB","coordinate":{"latitude":46.6972,"longitude":-92.5032},"frequencyKhz":335},{"ident":"COT","name":"Cotulla","type":"VORTAC","coordinate":{"latitude":28.462,"longitude":-99.1185},"frequencyKhz":115800},{"ident":"COU","name":"Columbia","type":"VOR-DME","coordinate":{"latitude":38.8108,"longitude":-92.2183},"frequencyKhz":110200},{"ident":"CP","name":"Johno","type":"NDB","coordinate":{"latitude":42.9072,"longitude":-106.57},"frequencyKhz":375},{"ident":"CP","name":"Acore","type":"NDB","coordinate":{"latitude":38.5198,"longitude":-90.0595},"frequencyKhz":350},{"ident":"CPC","name":"Camp","type":"NDB","coordinate":{"latitude":34.2718,"longitude":-78.7139},"frequencyKhz":227},{"ident":"CPM","name":"Compton","type":"NDB","coordinate":{"latitude":33.8889,"longitude":-118.247},"frequencyKhz":378},{"ident":"CPN","name":"Coppertown","type":"VOR-DME","coordinate":{"latitude":46.032,"longitude":-112.748},"frequencyKhz":111600},{"ident":"CPP","name":"Cole Spring","type":"NDB","coordinate":{"latitude":34.3679,"longitude":-86.8239},"frequencyKhz":230},{"ident":"CPZ","name":"Chaparrosa Ranch","type":"NDB","coordinate":{"latitude":28.91,"longitude":-100.006},"frequencyKhz":385},{"ident":"CQA","name":"Lakefield","type":"NDB","coordinate":{"latitude":40.482,"longitude":-84.5644},"frequencyKhz":205},{"ident":"CQB","name":"Tilghman","type":"NDB","coordinate":{"latitude":35.7223,"longitude":-96.8186},"frequencyKhz":396},{"ident":"CQD","name":"Cascade","type":"NDB","coordinate":{"latitude":42.1192,"longitude":-80.1046},"frequencyKhz":372},{"ident":"CQJ","name":"City Lake","type":"NDB","coordinate":{"latitude":35.7162,"longitude":-79.8653},"frequencyKhz":266},{"ident":"CQL","name":"Carbondale","type":"NDB","coordinate":{"latitude":39.4117,"longitude":-107.159},"frequencyKhz":344},{"ident":"CQM","name":"Cook","type":"NDB","coordinate":{"latitude":47.8211,"longitude":-92.6913},"frequencyKhz":233},{"ident":"CQN","name":"Daisy","type":"NDB","coordinate":{"latitude":35.1665,"longitude":-85.1574},"frequencyKhz":341},{"ident":"CQR","name":"Chandalar Lake","type":"NDB","coordinate":{"latitude":67.5024,"longitude":-148.469},"frequencyKhz":263},{"ident":"CQW","name":"Cheraw","type":"NDB","coordinate":{"latitude":34.7418,"longitude":-79.8656},"frequencyKhz":409},{"ident":"CQX","name":"Nauset","type":"NDB","coordinate":{"latitude":41.6918,"longitude":-69.9898},"frequencyKhz":279},{"ident":"CQY","name":"Cedar Creek","type":"VORTAC","coordinate":{"latitude":32.1857,"longitude":-96.2181},"frequencyKhz":114800},{"ident":"CR","name":"Conor","type":"NDB","coordinate":{"latitude":27.8345,"longitude":-97.5765},"frequencyKhz":382},{"ident":"CR","name":"Calab","type":"NDB","coordinate":{"latitude":33.8852,"longitude":-78.6299},"frequencyKhz":267},{"ident":"CRD","name":"Conrad","type":"NDB","coordinate":{"latitude":48.1856,"longitude":-111.914},"frequencyKhz":293},{"ident":"CRE","name":"Grand Strand","type":"VORTAC","coordinate":{"latitude":33.8138,"longitude":-78.7245},"frequencyKhz":117600},{"ident":"CRG","name":"Craig","type":"VORTAC","coordinate":{"latitude":30.3389,"longitude":-81.5099},"frequencyKhz":114500},{"ident":"CRI","name":"Canarsie","type":"VOR-DME","coordinate":{"latitude":40.6125,"longitude":-73.8944},"frequencyKhz":112300},{"ident":"CRL","name":"Carleton","type":"VORTAC","coordinate":{"latitude":42.0481,"longitude":-83.4576},"frequencyKhz":115700},{"ident":"CRN","name":"Cairn Mountain","type":"NDB","coordinate":{"latitude":61.1011,"longitude":-155.569},"frequencyKhz":281},{"ident":"CRP","name":"Corpus Christi","type":"VORTAC","coordinate":{"latitude":27.9038,"longitude":-97.4449},"frequencyKhz":115500},{"ident":"CRS","name":"Corsicana","type":"NDB","coordinate":{"latitude":32.0277,"longitude":-96.3953},"frequencyKhz":396},{"ident":"CRZ","name":"Corning","type":"NDB","coordinate":{"latitude":40.9964,"longitude":-94.7569},"frequencyKhz":278},{"ident":"CS","name":"Fenix","type":"NDB","coordinate":{"latitude":32.452,"longitude":-85.0419},"frequencyKhz":355},{"ident":"CSB","name":"Harry Strunk","type":"NDB","coordinate":{"latitude":40.3043,"longitude":-100.158},"frequencyKhz":389},{"ident":"CSG","name":"Columbus","type":"VORTAC","coordinate":{"latitude":32.6153,"longitude":-85.0176},"frequencyKhz":117100},{"ident":"CSI","name":"Center Point","type":"VORTAC","coordinate":{"latitude":29.9223,"longitude":-99.2145},"frequencyKhz":117500},{"ident":"CSN","name":"Casanova","type":"VORTAC","coordinate":{"latitude":38.6412,"longitude":-77.8655},"frequencyKhz":116300},{"ident":"CSS","name":"Court House","type":"NDB","coordinate":{"latitude":39.6009,"longitude":-83.3916},"frequencyKhz":414},{"ident":"CSX","name":"Cardinal","type":"VOR-DME","coordinate":{"latitude":38.7527,"longitude":-90.3609},"frequencyKhz":116450},{"ident":"CTB","name":"Cut Bank","type":"VORTAC","coordinate":{"latitude":48.5649,"longitude":-112.343},"frequencyKhz":114400},{"ident":"CTF","name":"Chesterfield","type":"VOR-DME","coordinate":{"latitude":34.6505,"longitude":-80.2749},"frequencyKhz":108200},{"ident":"CTK","name":"Canton","type":"NDB","coordinate":{"latitude":40.5659,"longitude":-90.0771},"frequencyKhz":236},{"ident":"CTR","name":"Chester","type":"VOR-DME","coordinate":{"latitude":42.2913,"longitude":-72.9494},"frequencyKhz":115100},{"ident":"CTW","name":"Newcomerstown","type":"VOR-DME","coordinate":{"latitude":40.2292,"longitude":-81.4765},"frequencyKhz":111800},{"ident":"CTY","name":"Cross City","type":"VORTAC","coordinate":{"latitude":29.599,"longitude":-83.0487},"frequencyKhz":112000},{"ident":"CTZ","name":"Clinton","type":"NDB","coordinate":{"latitude":34.9754,"longitude":-78.3631},"frequencyKhz":412},{"ident":"CUH","name":"Cushing","type":"NDB","coordinate":{"latitude":35.8944,"longitude":-96.7811},"frequencyKhz":242},{"ident":"CUL","name":"Carmi","type":"NDB","coordinate":{"latitude":38.0935,"longitude":-88.1196},"frequencyKhz":332},{"ident":"CUN","name":"Chena","type":"NDB","coordinate":{"latitude":64.8386,"longitude":-147.495},"frequencyKhz":257},{"ident":"CUS","name":"Columbus","type":"VOR-DME","coordinate":{"latitude":31.8191,"longitude":-107.574},"frequencyKhz":111200},{"ident":"CUZ","name":"Custer County","type":"VOR-DME","coordinate":{"latitude":41.484,"longitude":-99.6891},"frequencyKhz":108200},{"ident":"CV","name":"Abeta","type":"NDB","coordinate":{"latitude":40.9645,"longitude":-124.099},"frequencyKhz":233},{"ident":"CV","name":"Carlz","type":"NDB","coordinate":{"latitude":32.2668,"longitude":-104.339},"frequencyKhz":402},{"ident":"CV","name":"Hisan","type":"NDB","coordinate":{"latitude":34.3507,"longitude":-103.174},"frequencyKhz":335},{"ident":"CVA","name":"Davenport","type":"VORTAC","coordinate":{"latitude":41.7085,"longitude":-90.4833},"frequencyKhz":113800},{"ident":"CVB","name":"Castroville","type":"NDB","coordinate":{"latitude":29.3461,"longitude":-98.8492},"frequencyKhz":338},{"ident":"CVE","name":"Cowboy","type":"VOR-DME","coordinate":{"latitude":32.8903,"longitude":-96.904},"frequencyKhz":116200},{"ident":"CVG","name":"Cincinnati","type":"VORTAC","coordinate":{"latitude":39.016,"longitude":-84.7033},"frequencyKhz":117300},{"ident":"CVI","name":"Cofield","type":"VORTAC","coordinate":{"latitude":36.3729,"longitude":-76.8716},"frequencyKhz":114600},{"ident":"CVM","name":"Civic Mem","type":"NDB","coordinate":{"latitude":38.8923,"longitude":-90.0563},"frequencyKhz":263},{"ident":"CVO","name":"Corvallis","type":"VOR-DME","coordinate":{"latitude":44.4996,"longitude":-123.294},"frequencyKhz":115400},{"ident":"CVP","name":"Capitol","type":"NDB","coordinate":{"latitude":46.6067,"longitude":-111.937},"frequencyKhz":335},{"ident":"CVS","name":"Cannon","type":"TACAN","coordinate":{"latitude":34.3806,"longitude":-103.322},"frequencyKhz":111600},{"ident":"CVV","name":"Penn Cove","type":"VOR-DME","coordinate":{"latitude":48.2447,"longitude":-122.724},"frequencyKhz":117200},{"ident":"CVX","name":"Charlevoix","type":"NDB","coordinate":{"latitude":45.3018,"longitude":-85.27},"frequencyKhz":392},{"ident":"CVY","name":"Cavalry","type":"NDB","coordinate":{"latitude":39.026,"longitude":-96.7945},"frequencyKhz":314},{"ident":"CW","name":"Mossy","type":"NDB","coordinate":{"latitude":30.3067,"longitude":-93.1962},"frequencyKhz":418},{"ident":"CW","name":"Danci","type":"NDB","coordinate":{"latitude":44.7605,"longitude":-89.7893},"frequencyKhz":275},{"ident":"CWH","name":"Capshaw","type":"NDB","coordinate":{"latitude":34.7737,"longitude":-86.779},"frequencyKhz":350},{"ident":"CWI","name":"Clinton","type":"NDB","coordinate":{"latitude":41.8288,"longitude":-90.3276},"frequencyKhz":377},{"ident":"CWK","name":"Centex","type":"VORTAC","coordinate":{"latitude":30.3785,"longitude":-97.5298},"frequencyKhz":112800},{"ident":"CWS","name":"Conway","type":"NDB","coordinate":{"latitude":35.084,"longitude":-92.4268},"frequencyKhz":302},{"ident":"CWV","name":"Claxton","type":"NDB","coordinate":{"latitude":32.1969,"longitude":-81.8806},"frequencyKhz":395},{"ident":"CX","name":"Alibi","type":"NDB","coordinate":{"latitude":30.432,"longitude":-95.4762},"frequencyKhz":281},{"ident":"CX","name":"Latle","type":"NDB","coordinate":{"latitude":40.1782,"longitude":-77.0056},"frequencyKhz":219},{"ident":"CXK","name":"Clam Lake","type":"NDB","coordinate":{"latitude":44.8994,"longitude":-85.2397},"frequencyKhz":251},{"ident":"CXR","name":"Chardon","type":"VOR-DME","coordinate":{"latitude":41.5169,"longitude":-81.1632},"frequencyKhz":112700},{"ident":"CXU","name":"Camilla","type":"NDB","coordinate":{"latitude":31.2146,"longitude":-84.2368},"frequencyKhz":369},{"ident":"CY","name":"Horse","type":"NDB","coordinate":{"latitude":41.1467,"longitude":-104.679},"frequencyKhz":353},{"ident":"CYE","name":"Crystal Lake","type":"NDB","coordinate":{"latitude":41.2104,"longitude":-75.8318},"frequencyKhz":410},{"ident":"CYN","name":"Coyle","type":"VORTAC","coordinate":{"latitude":39.8173,"longitude":-74.4316},"frequencyKhz":113400},{"ident":"CYO","name":"Circleville","type":"NDB","coordinate":{"latitude":39.5231,"longitude":-82.9797},"frequencyKhz":366},{"ident":"CYR","name":"Caidy","type":"NDB","coordinate":{"latitude":30.8882,"longitude":-84.1593},"frequencyKhz":338},{"ident":"CYS","name":"Cheyenne","type":"VORTAC","coordinate":{"latitude":41.211,"longitude":-104.773},"frequencyKhz":113100},{"ident":"CYT","name":"Yakataga","type":"NDB","coordinate":{"latitude":60.0862,"longitude":-142.489},"frequencyKhz":209},{"ident":"CYW","name":"Clay Center","type":"NDB","coordinate":{"latitude":39.3807,"longitude":-97.1612},"frequencyKhz":362},{"ident":"CYY","name":"Cypress","type":"VOR-DME","coordinate":{"latitude":26.1534,"longitude":-81.7781},"frequencyKhz":108600},{"ident":"CZB","name":"Casey","type":"NDB","coordinate":{"latitude":39.3052,"longitude":-88.002},"frequencyKhz":359},{"ident":"CZE","name":"Clarksville","type":"NDB","coordinate":{"latitude":35.4692,"longitude":-93.4235},"frequencyKhz":201},{"ident":"CZF","name":"Cape Romanzof","type":"DME","coordinate":{"latitude":61.7803,"longitude":-166.039},"frequencyKhz":116750},{"ident":"CZF","name":"Cape Romanzof","type":"NDB","coordinate":{"latitude":61.7907,"longitude":-165.97},"frequencyKhz":275},{"ident":"CZI","name":"Crazy Woman","type":"VOR-DME","coordinate":{"latitude":43.9997,"longitude":-106.436},"frequencyKhz":117300},{"ident":"CZJ","name":"Amason","type":"NDB","coordinate":{"latitude":31.8329,"longitude":-94.1538},"frequencyKhz":341},{"ident":"CZQ","name":"Clovis","type":"VORTAC","coordinate":{"latitude":36.8843,"longitude":-119.815},"frequencyKhz":112900},{"ident":"CZX","name":"Crosbyton","type":"NDB","coordinate":{"latitude":33.6241,"longitude":-101.239},"frequencyKhz":332},{"ident":"DA","name":"Tomok","type":"NDB","coordinate":{"latitude":29.1441,"longitude":-81.1477},"frequencyKhz":263},{"ident":"DA","name":"Davee","type":"NDB","coordinate":{"latitude":38.6633,"longitude":-77.1097},"frequencyKhz":223},{"ident":"DAF","name":"Necedah","type":"NDB","coordinate":{"latitude":44.0341,"longitude":-90.0826},"frequencyKhz":233},{"ident":"DAG","name":"Daggett","type":"VORTAC","coordinate":{"latitude":34.9625,"longitude":-116.578},"frequencyKhz":113200},{"ident":"DAK","name":"Drake","type":"VOR-DME","coordinate":{"latitude":36.0429,"longitude":-94.1976},"frequencyKhz":108800},{"ident":"DAN","name":"Danville","type":"VOR","coordinate":{"latitude":36.5689,"longitude":-79.3367},"frequencyKhz":113100},{"ident":"DAO","name":"Dragoo","type":"NDB","coordinate":{"latitude":31.5857,"longitude":-110.344},"frequencyKhz":410},{"ident":"DAS","name":"Daisetta","type":"VORTAC","coordinate":{"latitude":30.1897,"longitude":-94.645},"frequencyKhz":116900},{"ident":"DB","name":"Zilom","type":"NDB","coordinate":{"latitude":42.323,"longitude":-90.5989},"frequencyKhz":341},{"ident":"DB","name":"Creke","type":"NDB","coordinate":{"latitude":32.4838,"longitude":-83.0109},"frequencyKhz":251},{"ident":"DBL","name":"Red Table","type":"VOR-DME","coordinate":{"latitude":39.4393,"longitude":-106.895},"frequencyKhz":113000},{"ident":"DBN","name":"Dublin","type":"VORTAC","coordinate":{"latitude":32.5607,"longitude":-82.8332},"frequencyKhz":113100},{"ident":"DBQ","name":"Dubuque","type":"VORTAC","coordinate":{"latitude":42.4015,"longitude":-90.7091},"frequencyKhz":115800},{"ident":"DBS","name":"Dubois","type":"VORTAC","coordinate":{"latitude":44.0889,"longitude":-112.209},"frequencyKhz":116900},{"ident":"DBX","name":"Morrison","type":"NDB","coordinate":{"latitude":39.7617,"longitude":-97.0423},"frequencyKhz":212},{"ident":"DC","name":"Oxonn","type":"NDB","coordinate":{"latitude":38.7661,"longitude":-77.0266},"frequencyKhz":332},{"ident":"DC","name":"Buffs","type":"NDB","coordinate":{"latitude":40.3347,"longitude":-104.626},"frequencyKhz":332},{"ident":"DCA","name":"Washington","type":"VOR-DME","coordinate":{"latitude":38.8595,"longitude":-77.0364},"frequencyKhz":111000},{"ident":"DCM","name":"Chester","type":"NDB","coordinate":{"latitude":34.7868,"longitude":-81.2011},"frequencyKhz":220},{"ident":"DCU","name":"Decatur","type":"VOR-DME","coordinate":{"latitude":34.6483,"longitude":-86.9395},"frequencyKhz":112800},{"ident":"DCY","name":"Washington","type":"NDB","coordinate":{"latitude":38.6962,"longitude":-87.1325},"frequencyKhz":212},{"ident":"DD","name":"Cobbs","type":"NDB","coordinate":{"latitude":39.7429,"longitude":-83.0202},"frequencyKhz":253},{"ident":"DDA","name":"Commerce","type":"NDB","coordinate":{"latitude":34.0622,"longitude":-83.5209},"frequencyKhz":244},{"ident":"DDC","name":"Dodge City","type":"VORTAC","coordinate":{"latitude":37.8506,"longitude":-100.006},"frequencyKhz":108200},{"ident":"DDD","name":"Port City","type":"VOR-DME","coordinate":{"latitude":41.3664,"longitude":-91.1491},"frequencyKhz":116500},{"ident":"DDL","name":"Sheldon","type":"VOR-DME","coordinate":{"latitude":43.2121,"longitude":-95.8339},"frequencyKhz":108600},{"ident":"DDY","name":"Muddy Mountain","type":"VORTAC","coordinate":{"latitude":43.0909,"longitude":-106.277},"frequencyKhz":116200},{"ident":"DE","name":"Madds","type":"NDB","coordinate":{"latitude":42.4949,"longitude":-83.0935},"frequencyKhz":338},{"ident":"DE","name":"Elwin","type":"NDB","coordinate":{"latitude":39.7905,"longitude":-88.9538},"frequencyKhz":275},{"ident":"DEF","name":"Slidell","type":"NDB","coordinate":{"latitude":30.2968,"longitude":-89.8341},"frequencyKhz":256},{"ident":"DEH","name":"Decorah","type":"NDB","coordinate":{"latitude":43.2757,"longitude":-91.7365},"frequencyKhz":236},{"ident":"DEN","name":"Denver","type":"VOR-DME","coordinate":{"latitude":39.8125,"longitude":-104.661},"frequencyKhz":117900},{"ident":"DEQ","name":"De Queen","type":"NDB","coordinate":{"latitude":34.0459,"longitude":-94.3994},"frequencyKhz":281},{"ident":"DER","name":"Alexander City","type":"NDB","coordinate":{"latitude":32.8793,"longitude":-85.9613},"frequencyKhz":382},{"ident":"DFI","name":"Defiance","type":"NDB","coordinate":{"latitude":41.3345,"longitude":-84.4269},"frequencyKhz":246},{"ident":"DGD","name":"Dogwood","type":"VORTAC","coordinate":{"latitude":37.0235,"longitude":-92.8769},"frequencyKhz":109400},{"ident":"DGG","name":"Red Dog","type":"NDB-DME","coordinate":{"latitude":68.0324,"longitude":-162.904},"frequencyKhz":429},{"ident":"DHK","name":"Randolph","type":"TACAN","coordinate":{"latitude":29.5369,"longitude":-98.2678},"frequencyKhz":109900},{"ident":"DHP","name":"Dolphin","type":"VORTAC","coordinate":{"latitude":25.8,"longitude":-80.349},"frequencyKhz":113900},{"ident":"DHT","name":"Dalhart","type":"VORTAC","coordinate":{"latitude":36.0915,"longitude":-102.545},"frequencyKhz":112000},{"ident":"DI","name":"Noson","type":"NDB","coordinate":{"latitude":46.6878,"longitude":-102.712},"frequencyKhz":353},{"ident":"DIK","name":"Dickinson","type":"VORTAC","coordinate":{"latitude":46.86,"longitude":-102.774},"frequencyKhz":112900},{"ident":"DIW","name":"Dixon","type":"NDB-DME","coordinate":{"latitude":34.5685,"longitude":-77.453},"frequencyKhz":198},{"ident":"DJB","name":"Dryer","type":"VOR-DME","coordinate":{"latitude":41.3581,"longitude":-82.162},"frequencyKhz":113600},{"ident":"DJD","name":"Canton","type":"NDB","coordinate":{"latitude":34.2524,"longitude":-84.4876},"frequencyKhz":415},{"ident":"DJN","name":"Delta Junction","type":"NDB","coordinate":{"latitude":64.0235,"longitude":-145.687},"frequencyKhz":347},{"ident":"DKA","name":"Kenan","type":"NDB","coordinate":{"latitude":35.0723,"longitude":-77.9189},"frequencyKhz":332},{"ident":"DKB","name":"De Kalb","type":"NDB","coordinate":{"latitude":41.934,"longitude":-88.7073},"frequencyKhz":209},{"ident":"DKG","name":"Don Scott","type":"NDB","coordinate":{"latitude":40.0804,"longitude":-83.0788},"frequencyKhz":348},{"ident":"DKK","name":"Dunkirk","type":"DME","coordinate":{"latitude":42.4904,"longitude":-79.2741},"frequencyKhz":116200},{"ident":"DL","name":"Pykla","type":"NDB","coordinate":{"latitude":46.8457,"longitude":-92.355},"frequencyKhz":379},{"ident":"DLC","name":"Dillon","type":"NDB","coordinate":{"latitude":34.4501,"longitude":-79.3688},"frequencyKhz":274},{"ident":"DLF","name":"Laughlin","type":"VORTAC","coordinate":{"latitude":29.3609,"longitude":-100.772},"frequencyKhz":114400},{"ident":"DLG","name":"Dillingham","type":"VOR-DME","coordinate":{"latitude":58.9942,"longitude":-158.552},"frequencyKhz":116400},{"ident":"DLH","name":"Duluth","type":"VORTAC","coordinate":{"latitude":46.8022,"longitude":-92.2029},"frequencyKhz":112600},{"ident":"DLL","name":"Dells","type":"VORTAC","coordinate":{"latitude":43.5509,"longitude":-89.7636},"frequencyKhz":117000},{"ident":"DLN","name":"Dillon","type":"VOR-DME","coordinate":{"latitude":45.2486,"longitude":-112.547},"frequencyKhz":113000},{"ident":"DLZ","name":"Delaware","type":"NDB","coordinate":{"latitude":40.277,"longitude":-83.1033},"frequencyKhz":215},{"ident":"DM","name":"Spenc","type":"NDB","coordinate":{"latitude":42.22,"longitude":-83.2033},"frequencyKhz":223},{"ident":"DMA","name":"Davis Monthan","type":"TACAN","coordinate":{"latitude":32.1599,"longitude":-110.881},"frequencyKhz":117600},{"ident":"DMD","name":"Dimmit County","type":"NDB","coordinate":{"latitude":28.5224,"longitude":-99.8273},"frequencyKhz":343},{"ident":"DMN","name":"Deming","type":"VORTAC","coordinate":{"latitude":32.2756,"longitude":-107.605},"frequencyKhz":108600},{"ident":"DMO","name":"Sedalia","type":"NDB","coordinate":{"latitude":38.7044,"longitude":-93.1766},"frequencyKhz":281},{"ident":"DMZ","name":"Dickson","type":"NDB","coordinate":{"latitude":36.1274,"longitude":-87.4324},"frequencyKhz":203},{"ident":"DN","name":"Julip","type":"NDB","coordinate":{"latitude":40.2895,"longitude":-87.5297},"frequencyKhz":332},{"ident":"DNI","name":"Denison","type":"NDB","coordinate":{"latitude":33.824,"longitude":-96.6697},"frequencyKhz":341},{"ident":"DNJ","name":"Donnelly","type":"VORTAC","coordinate":{"latitude":44.7671,"longitude":-116.206},"frequencyKhz":116200},{"ident":"DNS","name":"Denison","type":"NDB","coordinate":{"latitude":41.984,"longitude":-95.3794},"frequencyKhz":350},{"ident":"DNT","name":"Nally Dunston","type":"NDB","coordinate":{"latitude":35.995,"longitude":-89.4058},"frequencyKhz":343},{"ident":"DNV","name":"Danville","type":"VORTAC","coordinate":{"latitude":40.2938,"longitude":-87.5572},"frequencyKhz":111000},{"ident":"DNW","name":"Dunoir","type":"VOR-DME","coordinate":{"latitude":43.8283,"longitude":-110.335},"frequencyKhz":117200},{"ident":"DNY","name":"De Lancey","type":"VOR-DME","coordinate":{"latitude":42.1783,"longitude":-74.9569},"frequencyKhz":112100},{"ident":"DO","name":"Dotte","type":"NDB","coordinate":{"latitude":39.2209,"longitude":-94.7499},"frequencyKhz":359},{"ident":"DO","name":"Dougy","type":"NDB","coordinate":{"latitude":45.8345,"longitude":-89.7304},"frequencyKhz":236},{"ident":"DOB","name":"Dobbins","type":"TACAN","coordinate":{"latitude":33.9146,"longitude":-84.5073},"frequencyKhz":113000},{"ident":"DOV","name":"Dover","type":"TACAN","coordinate":{"latitude":39.1323,"longitude":-75.4673},"frequencyKhz":110000},{"ident":"DPA","name":"Du Page","type":"VOR-DME","coordinate":{"latitude":41.8904,"longitude":-88.3502},"frequencyKhz":108400},{"ident":"DPG","name":"Dugway","type":"NDB","coordinate":{"latitude":40.1824,"longitude":-112.937},"frequencyKhz":284},{"ident":"DPK","name":"Deer Park","type":"VOR-DME","coordinate":{"latitude":40.7918,"longitude":-73.3037},"frequencyKhz":117700},{"ident":"DPR","name":"Dupree","type":"VORTAC","coordinate":{"latitude":45.0781,"longitude":-101.715},"frequencyKhz":116800},{"ident":"DPY","name":"Deer Park","type":"NDB","coordinate":{"latitude":47.9677,"longitude":-117.426},"frequencyKhz":216},{"ident":"DQN","name":"Dayton","type":"VOR-DME","coordinate":{"latitude":40.0164,"longitude":-84.3969},"frequencyKhz":114500},{"ident":"DQO","name":"Dupont","type":"VORTAC","coordinate":{"latitude":39.6781,"longitude":-75.6071},"frequencyKhz":114000},{"ident":"DQU","name":"De Quincy","type":"NDB","coordinate":{"latitude":30.4355,"longitude":-93.4668},"frequencyKhz":410},{"ident":"DR","name":"Idder","type":"NDB","coordinate":{"latitude":30.7521,"longitude":-93.3347},"frequencyKhz":385},{"ident":"DR","name":"Kotti","type":"NDB","coordinate":{"latitude":29.4427,"longitude":-100.992},"frequencyKhz":335},{"ident":"DRK","name":"Drake","type":"VORTAC","coordinate":{"latitude":34.7026,"longitude":-112.48},"frequencyKhz":114100},{"ident":"DRM","name":"Drummond Island","type":"NDB","coordinate":{"latitude":46.0072,"longitude":-83.7422},"frequencyKhz":218},{"ident":"DRO","name":"Durango","type":"VOR-DME","coordinate":{"latitude":37.1533,"longitude":-107.75},"frequencyKhz":108200},{"ident":"DRU","name":"Drummond","type":"VOR","coordinate":{"latitude":46.6361,"longitude":-113.187},"frequencyKhz":117100},{"ident":"DS","name":"Forem","type":"NDB","coordinate":{"latitude":41.4822,"longitude":-93.5806},"frequencyKhz":344},{"ident":"DSD","name":"Deschutes","type":"VORTAC","coordinate":{"latitude":44.2528,"longitude":-121.304},"frequencyKhz":117600},{"ident":"DSM","name":"Des Moines","type":"VORTAC","coordinate":{"latitude":41.437,"longitude":-93.6487},"frequencyKhz":117500},{"ident":"DT","name":"Revup","type":"NDB","coordinate":{"latitude":42.1201,"longitude":-83.4317},"frequencyKhz":388},{"ident":"DTA","name":"Delta","type":"VORTAC","coordinate":{"latitude":39.3023,"longitude":-112.506},"frequencyKhz":116100},{"ident":"DTE","name":"Mark Anton","type":"NDB","coordinate":{"latitude":35.482,"longitude":-84.9309},"frequencyKhz":394},{"ident":"DTL","name":"Detroit Lakes","type":"VOR-DME","coordinate":{"latitude":46.8255,"longitude":-95.8874},"frequencyKhz":111200},{"ident":"DTN","name":"Downtown","type":"VOR","coordinate":{"latitude":32.5399,"longitude":-93.7413},"frequencyKhz":108600},{"ident":"DTS","name":"Destin","type":"NDB","coordinate":{"latitude":30.4049,"longitude":-86.4738},"frequencyKhz":254},{"ident":"DUA","name":"Durant","type":"NDB","coordinate":{"latitude":33.9423,"longitude":-96.3986},"frequencyKhz":359},{"ident":"DUC","name":"Duncan","type":"VOR-DME","coordinate":{"latitude":34.3845,"longitude":-97.9168},"frequencyKhz":111000},{"ident":"DUG","name":"Douglas","type":"VORTAC","coordinate":{"latitude":31.4727,"longitude":-109.602},"frequencyKhz":108800},{"ident":"DUT","name":"Dutch Harbor","type":"NDB-DME","coordinate":{"latitude":53.9052,"longitude":-166.549},"frequencyKhz":283},{"ident":"DV","name":"Auney","type":"NDB","coordinate":{"latitude":41.6948,"longitude":-90.6558},"frequencyKhz":353},{"ident":"DVC","name":"Dove Creek","type":"VORTAC","coordinate":{"latitude":37.8088,"longitude":-108.931},"frequencyKhz":114600},{"ident":"DVK","name":"Goodall","type":"NDB","coordinate":{"latitude":37.5764,"longitude":-84.764},"frequencyKhz":311},{"ident":"DVL","name":"Devils Lake","type":"VOR-DME","coordinate":{"latitude":48.1152,"longitude":-98.9125},"frequencyKhz":111000},{"ident":"DVV","name":"Mile High","type":"VORTAC","coordinate":{"latitude":39.8947,"longitude":-104.624},"frequencyKhz":114700},{"ident":"DVZ","name":"Davie","type":"NDB","coordinate":{"latitude":35.9135,"longitude":-80.4562},"frequencyKhz":354},{"ident":"DW","name":"Owaso","type":"NDB","coordinate":{"latitude":36.3074,"longitude":-95.8753},"frequencyKhz":375},{"ident":"DWG","name":"Warrington","type":"TACAN","coordinate":{"latitude":30.4782,"longitude":-86.5209},"frequencyKhz":134500},{"ident":"DWH","name":"David Hooks","type":"NDB","coordinate":{"latitude":30.1255,"longitude":-95.5659},"frequencyKhz":521},{"ident":"DWL","name":"Willow","type":"NDB","coordinate":{"latitude":40.8728,"longitude":-100.073},"frequencyKhz":353},{"ident":"DWN","name":"Darwin","type":"VORTAC","coordinate":{"latitude":45.0875,"longitude":-94.4538},"frequencyKhz":109000},{"ident":"DXO","name":"Detroit","type":"VOR-DME","coordinate":{"latitude":42.2131,"longitude":-83.3667},"frequencyKhz":113400},{"ident":"DXT","name":"Dalton","type":"NDB","coordinate":{"latitude":42.4709,"longitude":-73.1702},"frequencyKhz":370},{"ident":"DXX","name":"Dawson-Madison","type":"NDB","coordinate":{"latitude":44.9841,"longitude":-96.1792},"frequencyKhz":341},{"ident":"DY","name":"Lexey","type":"NDB","coordinate":{"latitude":39.3896,"longitude":-94.6784},"frequencyKhz":275},{"ident":"DYB","name":"Dorchester Co","type":"NDB","coordinate":{"latitude":33.0613,"longitude":-80.2773},"frequencyKhz":365},{"ident":"DYL","name":"Doylestown","type":"NDB","coordinate":{"latitude":40.3357,"longitude":-75.1221},"frequencyKhz":237},{"ident":"DYO","name":"Smuto","type":"NDB","coordinate":{"latitude":43.7063,"longitude":-72.9572},"frequencyKhz":221},{"ident":"DYQ","name":"Dulaney","type":"NDB","coordinate":{"latitude":36.1359,"longitude":-82.8904},"frequencyKhz":263},{"ident":"DYR","name":"Dyersburg","type":"VORTAC","coordinate":{"latitude":36.0186,"longitude":-89.3176},"frequencyKhz":116800},{"ident":"DYS","name":"Dyess","type":"TACAN","coordinate":{"latitude":32.4185,"longitude":-99.8571},"frequencyKhz":133600},{"ident":"DZM","name":"Dumas","type":"NDB","coordinate":{"latitude":33.8844,"longitude":-91.5315},"frequencyKhz":305},{"ident":"EA","name":"Anoke","type":"NDB","coordinate":{"latitude":40.6261,"longitude":-99.0257},"frequencyKhz":422},{"ident":"EA","name":"Maggs","type":"NDB","coordinate":{"latitude":44.9447,"longitude":-91.3737},"frequencyKhz":239},{"ident":"EAD","name":"Nevada","type":"NDB","coordinate":{"latitude":37.8589,"longitude":-94.3027},"frequencyKhz":209},{"ident":"EAG","name":"Eagle Grove","type":"NDB","coordinate":{"latitude":42.7086,"longitude":-93.9106},"frequencyKhz":302},{"ident":"EAR","name":"Kearney","type":"VOR","coordinate":{"latitude":40.7256,"longitude":-99.0051},"frequencyKhz":111200},{"ident":"EAT","name":"Wenatchee","type":"VOR-DME","coordinate":{"latitude":47.3997,"longitude":-120.211},"frequencyKhz":111000},{"ident":"EAU","name":"Eau Claire","type":"VORTAC","coordinate":{"latitude":44.8977,"longitude":-91.4785},"frequencyKhz":112900},{"ident":"EAV","name":"Evansville","type":"NDB","coordinate":{"latitude":66.8932,"longitude":-151.564},"frequencyKhz":391},{"ident":"EBS","name":"Webster City","type":"NDB","coordinate":{"latitude":42.4413,"longitude":-93.8692},"frequencyKhz":323},{"ident":"EC","name":"Meggi","type":"NDB","coordinate":{"latitude":37.7912,"longitude":-113.021},"frequencyKhz":217},{"ident":"ECA","name":"Manteca","type":"VORTAC","coordinate":{"latitude":37.8336,"longitude":-121.171},"frequencyKhz":116000},{"ident":"ECB","name":"Newcombe","type":"VORTAC","coordinate":{"latitude":38.1584,"longitude":-82.9101},"frequencyKhz":110400},{"ident":"ECG","name":"Elizabeth City","type":"VOR-DME","coordinate":{"latitude":36.2576,"longitude":-76.1756},"frequencyKhz":112500},{"ident":"ECK","name":"Peck","type":"VORTAC","coordinate":{"latitude":43.2559,"longitude":-82.7179},"frequencyKhz":114000},{"ident":"ECS","name":"Newcastle","type":"VOR","coordinate":{"latitude":43.8812,"longitude":-104.308},"frequencyKhz":108200},{"ident":"ECY","name":"Eunice","type":"NDB","coordinate":{"latitude":30.5598,"longitude":-92.4481},"frequencyKhz":263},{"ident":"EDE","name":"Edenton","type":"NDB","coordinate":{"latitude":36.0254,"longitude":-76.5665},"frequencyKhz":265},{"ident":"EDF","name":"Elmendorf","type":"TACAN","coordinate":{"latitude":61.255,"longitude":-149.769},"frequencyKhz":113400},{"ident":"EDJ","name":"Bellefontaine","type":"NDB","coordinate":{"latitude":40.371,"longitude":-83.8136},"frequencyKhz":242},{"ident":"EDN","name":"Enterprise","type":"VOR","coordinate":{"latitude":31.296,"longitude":-85.9033},"frequencyKhz":116600},{"ident":"EDS","name":"Edisto","type":"VOR-DME","coordinate":{"latitude":33.4557,"longitude":-80.8584},"frequencyKhz":111400},{"ident":"EDW","name":"Edwards","type":"VORTAC","coordinate":{"latitude":34.9824,"longitude":-117.733},"frequencyKhz":116400},{"ident":"EE","name":"Tamie","type":"NDB","coordinate":{"latitude":45.7917,"longitude":-95.3055},"frequencyKhz":374},{"ident":"EED","name":"Needles","type":"VORTAC","coordinate":{"latitude":34.766,"longitude":-114.474},"frequencyKhz":115200},{"ident":"EEF","name":"Elephant","type":"NDB","coordinate":{"latitude":58.171,"longitude":-135.258},"frequencyKhz":391},{"ident":"EEN","name":"Keene","type":"VORTAC","coordinate":{"latitude":42.7943,"longitude":-72.2918},"frequencyKhz":109400},{"ident":"EEX","name":"Emanuel Co","type":"NDB","coordinate":{"latitude":32.6665,"longitude":-82.4527},"frequencyKhz":309},{"ident":"EFC","name":"Belle Fourche","type":"NDB","coordinate":{"latitude":44.7366,"longitude":-103.859},"frequencyKhz":269},{"ident":"EFD","name":"Ellington","type":"TACAN","coordinate":{"latitude":29.606,"longitude":-95.1597},"frequencyKhz":109400},{"ident":"EFK","name":"Newport","type":"NDB","coordinate":{"latitude":44.9528,"longitude":-72.1773},"frequencyKhz":242},{"ident":"EFW","name":"Jefferson","type":"NDB","coordinate":{"latitude":42.0136,"longitude":-94.3427},"frequencyKhz":391},{"ident":"EGE","name":"Eagle","type":"NDB","coordinate":{"latitude":39.6466,"longitude":-106.914},"frequencyKhz":357},{"ident":"EGQ","name":"Emmetsburg","type":"NDB","coordinate":{"latitude":43.1011,"longitude":-94.7072},"frequencyKhz":410},{"ident":"EGT","name":"Wellington","type":"NDB","coordinate":{"latitude":37.3237,"longitude":-97.3902},"frequencyKhz":414},{"ident":"EGV","name":"Eagle River","type":"NDB","coordinate":{"latitude":45.9327,"longitude":-89.2632},"frequencyKhz":341},{"ident":"EGY","name":"English Bay","type":"NDB","coordinate":{"latitude":57.124,"longitude":-170.272},"frequencyKhz":374},{"ident":"EHA","name":"Elkhart","type":"NDB","coordinate":{"latitude":37.0011,"longitude":-101.885},"frequencyKhz":377},{"ident":"EHF","name":"Shafter","type":"VORTAC","coordinate":{"latitude":35.4846,"longitude":-119.097},"frequencyKhz":115400},{"ident":"EHM","name":"Cape Newenham","type":"NDB-DME","coordinate":{"latitude":58.6559,"longitude":-162.076},"frequencyKhz":385},{"ident":"EI","name":"Garfy","type":"NDB","coordinate":{"latitude":36.275,"longitude":-97.7907},"frequencyKhz":341},{"ident":"EIC","name":"Belcher","type":"VORTAC","coordinate":{"latitude":32.7714,"longitude":-93.8099},"frequencyKhz":117400},{"ident":"EIL","name":"Eielson","type":"TACAN","coordinate":{"latitude":64.6538,"longitude":-147.094},"frequencyKhz":115100},{"ident":"EJK","name":"Greensboro","type":"NDB","coordinate":{"latitude":33.5949,"longitude":-83.1407},"frequencyKhz":397},{"ident":"EK","name":"Gozzr","type":"NDB","coordinate":{"latitude":42.2593,"longitude":-71.7361},"frequencyKhz":417},{"ident":"EKN","name":"Elkins","type":"VORTAC","coordinate":{"latitude":38.9144,"longitude":-80.0993},"frequencyKhz":114200},{"ident":"EKQ","name":"Elk Spring","type":"NDB","coordinate":{"latitude":36.8562,"longitude":-84.8529},"frequencyKhz":290},{"ident":"EKR","name":"Meeker","type":"VOR-DME","coordinate":{"latitude":40.0675,"longitude":-107.925},"frequencyKhz":115200},{"ident":"EKS","name":"Ennis","type":"NDB","coordinate":{"latitude":45.2658,"longitude":-111.651},"frequencyKhz":286},{"ident":"EL","name":"Valtr","type":"NDB","coordinate":{"latitude":31.8603,"longitude":-106.318},"frequencyKhz":242},{"ident":"EL","name":"Halos","type":"NDB","coordinate":{"latitude":42.1101,"longitude":-77.9151},"frequencyKhz":269},{"ident":"ELA","name":"Eagle Lake","type":"VOR-DME","coordinate":{"latitude":29.6625,"longitude":-96.3172},"frequencyKhz":116400},{"ident":"ELB","name":"El Toro","type":"VOR-DME","coordinate":{"latitude":33.676,"longitude":-117.731},"frequencyKhz":117200},{"ident":"ELD","name":"El Dorado","type":"VORTAC","coordinate":{"latitude":33.2562,"longitude":-92.7439},"frequencyKhz":115500},{"ident":"ELN","name":"Ellensburg","type":"VORTAC","coordinate":{"latitude":47.0243,"longitude":-120.458},"frequencyKhz":117900},{"ident":"ELO","name":"Ely","type":"VOR-DME","coordinate":{"latitude":47.8219,"longitude":-91.8301},"frequencyKhz":109600},{"ident":"ELP","name":"El Paso","type":"VORTAC","coordinate":{"latitude":31.8159,"longitude":-106.282},"frequencyKhz":115200},{"ident":"ELQ","name":"Emporia","type":"NDB","coordinate":{"latitude":36.618,"longitude":-77.4255},"frequencyKhz":261},{"ident":"ELW","name":"Electric City","type":"VORTAC","coordinate":{"latitude":34.4192,"longitude":-82.7847},"frequencyKhz":108600},{"ident":"ELX","name":"Keeler","type":"VOR-DME","coordinate":{"latitude":42.1444,"longitude":-86.1226},"frequencyKhz":116600},{"ident":"ELY","name":"Ely","type":"VOR-DME","coordinate":{"latitude":39.2981,"longitude":-114.848},"frequencyKhz":110600},{"ident":"ELZ","name":"Wellsville","type":"VORTAC","coordinate":{"latitude":42.0896,"longitude":-77.9995},"frequencyKhz":111400},{"ident":"EMG","name":"Elm Grove","type":"VORTAC","coordinate":{"latitude":32.4002,"longitude":-93.5951},"frequencyKhz":111200},{"ident":"EMI","name":"Westminster","type":"VORTAC","coordinate":{"latitude":39.495,"longitude":-76.9786},"frequencyKhz":117900},{"ident":"EMP","name":"Emporia","type":"VORTAC","coordinate":{"latitude":38.2911,"longitude":-96.1381},"frequencyKhz":112800},{"ident":"EMR","name":"Emory","type":"NDB","coordinate":{"latitude":33.4628,"longitude":-81.9969},"frequencyKhz":385},{"ident":"EMT","name":"El Monte","type":"NDB","coordinate":{"latitude":34.0883,"longitude":-118.031},"frequencyKhz":359},{"ident":"EN","name":"Rikky","type":"NDB","coordinate":{"latitude":41.2196,"longitude":-95.8179},"frequencyKhz":426},{"ident":"ENA","name":"Kenai","type":"VOR-DME","coordinate":{"latitude":60.6147,"longitude":-151.195},"frequencyKhz":117600},{"ident":"END","name":"Vance","type":"VORTAC","coordinate":{"latitude":36.345,"longitude":-97.9183},"frequencyKhz":115400},{"ident":"ENE","name":"Kennebunk","type":"VORTAC","coordinate":{"latitude":43.4257,"longitude":-70.6135},"frequencyKhz":117100},{"ident":"ENI","name":"Mendocino","type":"VORTAC","coordinate":{"latitude":39.0532,"longitude":-123.274},"frequencyKhz":112300},{"ident":"ENL","name":"Centralia","type":"VORTAC","coordinate":{"latitude":38.42,"longitude":-89.159},"frequencyKhz":115000},{"ident":"ENM","name":"Emmonak","type":"VOR-DME","coordinate":{"latitude":62.7846,"longitude":-164.488},"frequencyKhz":117800},{"ident":"ENN","name":"Nenana","type":"VORTAC","coordinate":{"latitude":64.59,"longitude":-149.073},"frequencyKhz":115800},{"ident":"ENO","name":"Smyrna","type":"VORTAC","coordinate":{"latitude":39.2317,"longitude":-75.5159},"frequencyKhz":111400},{"ident":"ENW","name":"Kenosha","type":"VOR-DME","coordinate":{"latitude":42.5991,"longitude":-87.9317},"frequencyKhz":109200},{"ident":"ENY","name":"Kennedy","type":"NDB","coordinate":{"latitude":46.5529,"longitude":-90.9145},"frequencyKhz":254},{"ident":"ENZ","name":"Nogales","type":"NDB","coordinate":{"latitude":31.4214,"longitude":-110.846},"frequencyKhz":394},{"ident":"EOE","name":"Enoree","type":"NDB","coordinate":{"latitude":34.3115,"longitude":-81.636},"frequencyKhz":278},{"ident":"EOG","name":"Greensboro","type":"NDB","coordinate":{"latitude":32.6024,"longitude":-87.6631},"frequencyKhz":417},{"ident":"EOK","name":"Keokuk","type":"NDB","coordinate":{"latitude":40.4647,"longitude":-91.4336},"frequencyKhz":366},{"ident":"EON","name":"Peotone","type":"VORTAC","coordinate":{"latitude":41.2696,"longitude":-87.7911},"frequencyKhz":113200},